[
  {
    "name": "Indiranagar",
    "lat": 12.9784,
    "lon": 77.6408,
    "temperature_c": 20.7,
    "humidity_pct": 87,
    "precipitation_mm": 0.0,
    "pm2_5": 33.3,
    "pm10": 37.1,
    "us_aqi": 75
  },
  {
    "name": "Koramangala",
    "lat": 12.9352,
    "lon": 77.6245,
    "temperature_c": 20.7,
    "humidity_pct": 90,
    "precipitation_mm": 0.0,
    "pm2_5": 33.3,
    "pm10": 37.1,
    "us_aqi": 75
  },
  {
    "name": "Whitefield",
    "lat": 12.9698,
    "lon": 77.75,
    "temperature_c": 20.1,
    "humidity_pct": 88,
    "precipitation_mm": 0.0,
    "pm2_5": 33.3,
    "pm10": 37.1,
    "us_aqi": 75
  },
  {
    "name": "Jayanagar",
    "lat": 12.9308,
    "lon": 77.5838,
    "temperature_c": 20.5,
    "humidity_pct": 90,
    "precipitation_mm": 0.0,
    "pm2_5": 33.3,
    "pm10": 37.1,
    "us_aqi": 75
  },
  {
    "name": "Banashankari",
    "lat": 12.9255,
    "lon": 77.5468,
    "temperature_c": 20.5,
    "humidity_pct": 90,
    "precipitation_mm": 0.0,
    "pm2_5": 33.3,
    "pm10": 37.1,
    "us_aqi": 75
  },
  {
    "name": "HSR Layout",
    "lat": 12.9116,
    "lon": 77.6473,
    "temperature_c": 20.7,
    "humidity_pct": 90,
    "precipitation_mm": 0.0,
    "pm2_5": 33.3,
    "pm10": 37.1,
    "us_aqi": 75
  },
  {
    "name": "Malleshwaram",
    "lat": 13.0035,
    "lon": 77.571,
    "temperature_c": 20.6,
    "humidity_pct": 87,
    "precipitation_mm": 0.0,
    "pm2_5": 26.1,
    "pm10": 29.5,
    "us_aqi": 72
  },
  {
    "name": "Hebbal",
    "lat": 13.035,
    "lon": 77.597,
    "temperature_c": 20.7,
    "humidity_pct": 87,
    "precipitation_mm": 0.0,
    "pm2_5": 26.1,
    "pm10": 29.5,
    "us_aqi": 72
  },
  {
    "name": "Rajajinagar",
    "lat": 12.9922,
    "lon": 77.5555,
    "temperature_c": 20.0,
    "humidity_pct": 87,
    "precipitation_mm": 0.0,
    "pm2_5": 33.3,
    "pm10": 37.1,
    "us_aqi": 75
  },
  {
    "name": "Basavanagudi",
    "lat": 12.9416,
    "lon": 77.5752,
    "temperature_c": 20.5,
    "humidity_pct": 87,
    "precipitation_mm": 0.0,
    "pm2_5": 33.3,
    "pm10": 37.1,
    "us_aqi": 75
  },
  {
    "name": "JP Nagar",
    "lat": 12.9063,
    "lon": 77.5857,
    "temperature_c": 20.6,
    "humidity_pct": 90,
    "precipitation_mm": 0.0,
    "pm2_5": 33.3,
    "pm10": 37.1,
    "us_aqi": 75
  },
  {
    "name": "Marathahalli",
    "lat": 12.9591,
    "lon": 77.6974,
    "temperature_c": 20.2,
    "humidity_pct": 88,
    "precipitation_mm": 0.0,
    "pm2_5": 33.3,
    "pm10": 37.1,
    "us_aqi": 75
  },
  {
    "name": "BTM Layout",
    "lat": 12.9166,
    "lon": 77.6101,
    "temperature_c": 20.6,
    "humidity_pct": 90,
    "precipitation_mm": 0.0,
    "pm2_5": 33.3,
    "pm10": 37.1,
    "us_aqi": 75
  },
  {
    "name": "Yelahanka",
    "lat": 13.1005,
    "lon": 77.5963,
    "temperature_c": 19.6,
    "humidity_pct": 92,
    "precipitation_mm": 0.0,
    "pm2_5": 26.1,
    "pm10": 29.5,
    "us_aqi": 72
  },
  {
    "name": "Electronic City",
    "lat": 12.8399,
    "lon": 77.677,
    "temperature_c": 20.6,
    "humidity_pct": 90,
    "precipitation_mm": 0.0,
    "pm2_5": 33.3,
    "pm10": 37.1,
    "us_aqi": 75
  },
  {
    "name": "Bellandur",
    "lat": 12.9257,
    "lon": 77.6762,
    "temperature_c": 20.8,
    "humidity_pct": 90,
    "precipitation_mm": 0.0,
    "pm2_5": 33.3,
    "pm10": 37.1,
    "us_aqi": 75
  },
  {
    "name": "Sarjapur",
    "lat": 12.8604,
    "lon": 77.786,
    "temperature_c": 20.5,
    "humidity_pct": 90,
    "precipitation_mm": 0.0,
    "pm2_5": 33.3,
    "pm10": 37.1,
    "us_aqi": 75
  },
  {
    "name": "Bannerghatta Road",
    "lat": 12.8933,
    "lon": 77.5975,
    "temperature_c": 20.6,
    "humidity_pct": 90,
    "precipitation_mm": 0.0,
    "pm2_5": 33.3,
    "pm10": 37.1,
    "us_aqi": 75
  },
  {
    "name": "Vijayanagar",
    "lat": 12.9718,
    "lon": 77.5348,
    "temperature_c": 20.1,
    "humidity_pct": 87,
    "precipitation_mm": 0.0,
    "pm2_5": 33.3,
    "pm10": 37.1,
    "us_aqi": 75
  },
  {
    "name": "RT Nagar",
    "lat": 13.02,
    "lon": 77.596,
    "temperature_c": 20.6,
    "humidity_pct": 87,
    "precipitation_mm": 0.0,
    "pm2_5": 26.1,
    "pm10": 29.5,
    "us_aqi": 72
  },
  {
    "name": "Frazer Town",
    "lat": 12.9833,
    "lon": 77.6167,
    "temperature_c": 20.7,
    "humidity_pct": 87,
    "precipitation_mm": 0.0,
    "pm2_5": 33.3,
    "pm10": 37.1,
    "us_aqi": 75
  },
  {
    "name": "Cox Town",
    "lat": 12.993,
    "lon": 77.619,
    "temperature_c": 20.7,
    "humidity_pct": 87,
    "precipitation_mm": 0.0,
    "pm2_5": 33.3,
    "pm10": 37.1,
    "us_aqi": 75
  },
  {
    "name": "Sadashivanagar",
    "lat": 13.005,
    "lon": 77.58,
    "temperature_c": 20.5,
    "humidity_pct": 87,
    "precipitation_mm": 0.0,
    "pm2_5": 26.1,
    "pm10": 29.5,
    "us_aqi": 72
  },
  {
    "name": "Dollars Colony",
    "lat": 13.042,
    "lon": 77.591,
    "temperature_c": 20.7,
    "humidity_pct": 87,
    "precipitation_mm": 0.0,
    "pm2_5": 26.1,
    "pm10": 29.5,
    "us_aqi": 72
  },
  {
    "name": "Cunningham Road",
    "lat": 12.9833,
    "lon": 77.5933,
    "temperature_c": 20.5,
    "humidity_pct": 87,
    "precipitation_mm": 0.0,
    "pm2_5": 33.3,
    "pm10": 37.1,
    "us_aqi": 75
  }
]