[
  {
    "name": "Indiranagar",
    "lat": 12.9784,
    "lon": 77.6408,
    "temperature_c": 31.4,
    "humidity_pct": 45,
    "precipitation_mm": 0.0,
    "pm2_5": 20.6,
    "pm10": 25.7,
    "us_aqi": 66
  },
  {
    "name": "Koramangala",
    "lat": 12.9352,
    "lon": 77.6245,
    "temperature_c": 31.5,
    "humidity_pct": 47,
    "precipitation_mm": 0.0,
    "pm2_5": 20.6,
    "pm10": 25.7,
    "us_aqi": 66
  },
  {
    "name": "Whitefield",
    "lat": 12.9742,
    "lon": 77.7424,
    "temperature_c": 31.4,
    "humidity_pct": 44,
    "precipitation_mm": 0.0,
    "pm2_5": 20.6,
    "pm10": 25.7,
    "us_aqi": 66
  },
  {
    "name": "JP Nagar",
    "lat": 12.9063,
    "lon": 77.5857,
    "temperature_c": 31.4,
    "humidity_pct": 47,
    "precipitation_mm": 0.0,
    "pm2_5": 20.6,
    "pm10": 25.7,
    "us_aqi": 66
  },
  {
    "name": "Marathahalli",
    "lat": 12.9591,
    "lon": 77.6974,
    "temperature_c": 31.4,
    "humidity_pct": 44,
    "precipitation_mm": 0.0,
    "pm2_5": 20.6,
    "pm10": 25.7,
    "us_aqi": 66
  },
  {
    "name": "BTM Layout",
    "lat": 12.9166,
    "lon": 77.6101,
    "temperature_c": 31.4,
    "humidity_pct": 47,
    "precipitation_mm": 0.0,
    "pm2_5": 20.6,
    "pm10": 25.7,
    "us_aqi": 66
  },
  {
    "name": "Frazer Town",
    "lat": 12.9833,
    "lon": 77.6167,
    "temperature_c": 31.5,
    "humidity_pct": 45,
    "precipitation_mm": 0.0,
    "pm2_5": 20.6,
    "pm10": 25.7,
    "us_aqi": 66
  },
  {
    "name": "Cox Town",
    "lat": 12.993,
    "lon": 77.619,
    "temperature_c": 31.4,
    "humidity_pct": 45,
    "precipitation_mm": 0.0,
    "pm2_5": 20.6,
    "pm10": 25.7,
    "us_aqi": 66
  },
  {
    "name": "Sadashivanagar",
    "lat": 13.005,
    "lon": 77.58,
    "temperature_c": 31.2,
    "humidity_pct": 45,
    "precipitation_mm": 0.0,
    "pm2_5": 24.3,
    "pm10": 30.0,
    "us_aqi": 67
  },
  {
    "name": "Banaswadi",
    "lat": 13.0013,
    "lon": 77.6456,
    "temperature_c": 31.3,
    "humidity_pct": 45,
    "precipitation_mm": 0.0,
    "pm2_5": 24.3,
    "pm10": 30.0,
    "us_aqi": 67
  },
  {
    "name": "Domlur",
    "lat": 12.9621,
    "lon": 77.6384,
    "temperature_c": 31.6,
    "humidity_pct": 45,
    "precipitation_mm": 0.0,
    "pm2_5": 20.6,
    "pm10": 25.7,
    "us_aqi": 66
  },
  {
    "name": "Ramamurthy Nagar",
    "lat": 13.0142,
    "lon": 77.6608,
    "temperature_c": 31.3,
    "humidity_pct": 45,
    "precipitation_mm": 0.0,
    "pm2_5": 24.3,
    "pm10": 30.0,
    "us_aqi": 67
  },
  {
    "name": "Shivajinagar",
    "lat": 12.9894,
    "lon": 77.6012,
    "temperature_c": 31.3,
    "humidity_pct": 45,
    "precipitation_mm": 0.0,
    "pm2_5": 20.6,
    "pm10": 25.7,
    "us_aqi": 66
  },
  {
    "name": "Bommanahalli",
    "lat": 12.8932,
    "lon": 77.6198,
    "temperature_c": 31.4,
    "humidity_pct": 47,
    "precipitation_mm": 0.0,
    "pm2_5": 20.6,
    "pm10": 25.7,
    "us_aqi": 66
  },
  {
    "name": "Doddakannalli",
    "lat": 12.9058,
    "lon": 77.6934,
    "temperature_c": 30.8,
    "humidity_pct": 48,
    "precipitation_mm": 0.0,
    "pm2_5": 20.6,
    "pm10": 25.7,
    "us_aqi": 66
  },
  {
    "name": "Kasavanahalli",
    "lat": 12.9042,
    "lon": 77.6765,
    "temperature_c": 31.5,
    "humidity_pct": 47,
    "precipitation_mm": 0.0,
    "pm2_5": 20.6,
    "pm10": 25.7,
    "us_aqi": 66
  },
  {
    "name": "Haralur",
    "lat": 12.9173,
    "lon": 77.683,
    "temperature_c": 31.6,
    "humidity_pct": 47,
    "precipitation_mm": 0.0,
    "pm2_5": 20.6,
    "pm10": 25.7,
    "us_aqi": 66
  },
  {
    "name": "RR Nagar",
    "lat": 12.9235,
    "lon": 77.5149,
    "temperature_c": 31.9,
    "humidity_pct": 47,
    "precipitation_mm": 0.0,
    "pm2_5": 20.6,
    "pm10": 25.7,
    "us_aqi": 66
  },
  {
    "name": "Kamakshipalya",
    "lat": 12.982,
    "lon": 77.538,
    "temperature_c": 31.9,
    "humidity_pct": 43,
    "precipitation_mm": 0.0,
    "pm2_5": 20.6,
    "pm10": 25.7,
    "us_aqi": 66
  },
  {
    "name": "Basaveshwara Nagar",
    "lat": 13.006,
    "lon": 77.535,
    "temperature_c": 32.6,
    "humidity_pct": 41,
    "precipitation_mm": 0.0,
    "pm2_5": 24.3,
    "pm10": 30.0,
    "us_aqi": 67
  },
  {
    "name": "BEL Layout",
    "lat": 13.028,
    "lon": 77.539,
    "temperature_c": 32.3,
    "humidity_pct": 41,
    "precipitation_mm": 0.0,
    "pm2_5": 24.3,
    "pm10": 30.0,
    "us_aqi": 67
  },
  {
    "name": "Girinagar",
    "lat": 12.938,
    "lon": 77.549,
    "temperature_c": 32.5,
    "humidity_pct": 41,
    "precipitation_mm": 0.0,
    "pm2_5": 20.6,
    "pm10": 25.7,
    "us_aqi": 66
  },
  {
    "name": "Hegganahalli",
    "lat": 12.986,
    "lon": 77.518,
    "temperature_c": 32.7,
    "humidity_pct": 41,
    "precipitation_mm": 0.0,
    "pm2_5": 20.6,
    "pm10": 25.7,
    "us_aqi": 66
  },
  {
    "name": "Vasanthapura",
    "lat": 12.9042,
    "lon": 77.5193,
    "temperature_c": 32.4,
    "humidity_pct": 44,
    "precipitation_mm": 0.0,
    "pm2_5": 20.6,
    "pm10": 25.7,
    "us_aqi": 66
  },
  {
    "name": "Konanakunte",
    "lat": 12.8936,
    "lon": 77.5546,
    "temperature_c": 32.0,
    "humidity_pct": 44,
    "precipitation_mm": 0.0,
    "pm2_5": 20.6,
    "pm10": 25.7,
    "us_aqi": 66
  },
  {
    "name": "Raghuvanahalli",
    "lat": 12.879,
    "lon": 77.5485,
    "temperature_c": 32.0,
    "humidity_pct": 44,
    "precipitation_mm": 0.0,
    "pm2_5": 20.6,
    "pm10": 25.7,
    "us_aqi": 66
  },
  {
    "name": "MG Road",
    "lat": 12.9753,
    "lon": 77.6076,
    "temperature_c": 31.8,
    "humidity_pct": 42,
    "precipitation_mm": 0.0,
    "pm2_5": 20.6,
    "pm10": 25.7,
    "us_aqi": 66
  },
  {
    "name": "Victoria Layout",
    "lat": 12.9677,
    "lon": 77.6176,
    "temperature_c": 31.9,
    "humidity_pct": 42,
    "precipitation_mm": 0.0,
    "pm2_5": 20.6,
    "pm10": 25.7,
    "us_aqi": 66
  },
  {
    "name": "Kodigehalli",
    "lat": 13.0491,
    "lon": 77.6131,
    "temperature_c": 32.0,
    "humidity_pct": 42,
    "precipitation_mm": 0.0,
    "pm2_5": 24.3,
    "pm10": 30.0,
    "us_aqi": 67
  },
  {
    "name": "Kaggadasapura",
    "lat": 12.9974,
    "lon": 77.6735,
    "temperature_c": 31.9,
    "humidity_pct": 42,
    "precipitation_mm": 0.0,
    "pm2_5": 20.6,
    "pm10": 25.7,
    "us_aqi": 66
  },
  {
    "name": "Hoodi",
    "lat": 13.0002,
    "lon": 77.7224,
    "temperature_c": 32.0,
    "humidity_pct": 41,
    "precipitation_mm": 0.0,
    "pm2_5": 24.3,
    "pm10": 30.0,
    "us_aqi": 67
  },
  {
    "name": "Kundalahalli",
    "lat": 12.9718,
    "lon": 77.7157,
    "temperature_c": 31.8,
    "humidity_pct": 41,
    "precipitation_mm": 0.0,
    "pm2_5": 20.6,
    "pm10": 25.7,
    "us_aqi": 66
  },
  {
    "name": "Dommasandra",
    "lat": 12.8616,
    "lon": 77.7433,
    "temperature_c": 31.4,
    "humidity_pct": 46,
    "precipitation_mm": 0.0,
    "pm2_5": 20.6,
    "pm10": 25.7,
    "us_aqi": 66
  },
  {
    "name": "Thubarahalli",
    "lat": 12.9626,
    "lon": 77.7198,
    "temperature_c": 31.9,
    "humidity_pct": 41,
    "precipitation_mm": 0.0,
    "pm2_5": 20.6,
    "pm10": 25.7,
    "us_aqi": 66
  }
]