[
  {
    "name": "Indiranagar",
    "lat": 12.9784,
    "lon": 77.6408,
    "temperature_c": 32.4,
    "humidity_pct": 39,
    "precipitation_mm": 0.0,
    "pm2_5": 24.3,
    "pm10": 33.5,
    "us_aqi": 84
  },
  {
    "name": "Koramangala",
    "lat": 12.9352,
    "lon": 77.6245,
    "temperature_c": 32.5,
    "humidity_pct": 43,
    "precipitation_mm": 0.0,
    "pm2_5": 24.3,
    "pm10": 33.5,
    "us_aqi": 84
  },
  {
    "name": "Whitefield",
    "lat": 12.9742,
    "lon": 77.7424,
    "temperature_c": 32.4,
    "humidity_pct": 37,
    "precipitation_mm": 0.0,
    "pm2_5": 24.3,
    "pm10": 33.5,
    "us_aqi": 84
  },
  {
    "name": "Jayanagar",
    "lat": 12.9308,
    "lon": 77.5838,
    "temperature_c": 32.3,
    "humidity_pct": 43,
    "precipitation_mm": 0.0,
    "pm2_5": 24.3,
    "pm10": 33.5,
    "us_aqi": 84
  },
  {
    "name": "BTM Layout",
    "lat": 12.9166,
    "lon": 77.6101,
    "temperature_c": 32.4,
    "humidity_pct": 43,
    "precipitation_mm": 0.0,
    "pm2_5": 24.3,
    "pm10": 33.5,
    "us_aqi": 84
  },
  {
    "name": "Yelahanka",
    "lat": 13.1005,
    "lon": 77.5963,
    "temperature_c": 33.7,
    "humidity_pct": 30,
    "precipitation_mm": 0.0,
    "pm2_5": 23.6,
    "pm10": 33.2,
    "us_aqi": 82
  },
  {
    "name": "Electronic City",
    "lat": 12.8468,
    "lon": 77.668,
    "temperature_c": 32.3,
    "humidity_pct": 43,
    "precipitation_mm": 0.0,
    "pm2_5": 24.3,
    "pm10": 33.5,
    "us_aqi": 84
  },
  {
    "name": "Bellandur",
    "lat": 12.9257,
    "lon": 77.6762,
    "temperature_c": 32.6,
    "humidity_pct": 43,
    "precipitation_mm": 0.0,
    "pm2_5": 24.3,
    "pm10": 33.5,
    "us_aqi": 84
  },
  {
    "name": "Cunningham Road",
    "lat": 12.9833,
    "lon": 77.5933,
    "temperature_c": 32.2,
    "humidity_pct": 39,
    "precipitation_mm": 0.0,
    "pm2_5": 24.3,
    "pm10": 33.5,
    "us_aqi": 84
  },
  {
    "name": "KR Puram",
    "lat": 13.0067,
    "lon": 77.6928,
    "temperature_c": 32.3,
    "humidity_pct": 37,
    "precipitation_mm": 0.0,
    "pm2_5": 23.6,
    "pm10": 33.2,
    "us_aqi": 82
  },
  {
    "name": "Mahadevapura",
    "lat": 12.994,
    "lon": 77.7127,
    "temperature_c": 32.3,
    "humidity_pct": 37,
    "precipitation_mm": 0.0,
    "pm2_5": 24.3,
    "pm10": 33.5,
    "us_aqi": 84
  },
  {
    "name": "Hennur",
    "lat": 13.042,
    "lon": 77.638,
    "temperature_c": 32.5,
    "humidity_pct": 39,
    "precipitation_mm": 0.0,
    "pm2_5": 23.6,
    "pm10": 33.2,
    "us_aqi": 82
  },
  {
    "name": "Peenya",
    "lat": 13.029,
    "lon": 77.515,
    "temperature_c": 32.9,
    "humidity_pct": 37,
    "precipitation_mm": 0.0,
    "pm2_5": 23.6,
    "pm10": 33.2,
    "us_aqi": 82
  },
  {
    "name": "Nagarbhavi",
    "lat": 12.9625,
    "lon": 77.514,
    "temperature_c": 33.4,
    "humidity_pct": 37,
    "precipitation_mm": 0.0,
    "pm2_5": 24.3,
    "pm10": 33.5,
    "us_aqi": 84
  },
  {
    "name": "Kengeri",
    "lat": 12.9143,
    "lon": 77.4829,
    "temperature_c": 33.0,
    "humidity_pct": 44,
    "precipitation_mm": 0.0,
    "pm2_5": 24.3,
    "pm10": 33.5,
    "us_aqi": 84
  },
  {
    "name": "Uttarahalli",
    "lat": 12.8914,
    "lon": 77.5519,
    "temperature_c": 32.4,
    "humidity_pct": 44,
    "precipitation_mm": 0.0,
    "pm2_5": 24.3,
    "pm10": 33.5,
    "us_aqi": 84
  },
  {
    "name": "Doddakannalli",
    "lat": 12.9058,
    "lon": 77.6934,
    "temperature_c": 31.9,
    "humidity_pct": 42,
    "precipitation_mm": 0.0,
    "pm2_5": 24.3,
    "pm10": 33.5,
    "us_aqi": 84
  },
  {
    "name": "Dasarahalli",
    "lat": 13.048,
    "lon": 77.517,
    "temperature_c": 32.9,
    "humidity_pct": 37,
    "precipitation_mm": 0.0,
    "pm2_5": 23.6,
    "pm10": 33.2,
    "us_aqi": 82
  },
  {
    "name": "Mahalakshmi Layout",
    "lat": 13.018,
    "lon": 77.548,
    "temperature_c": 32.9,
    "humidity_pct": 37,
    "precipitation_mm": 0.0,
    "pm2_5": 23.6,
    "pm10": 33.2,
    "us_aqi": 82
  },
  {
    "name": "Nandini Layout",
    "lat": 13.008,
    "lon": 77.532,
    "temperature_c": 33.1,
    "humidity_pct": 37,
    "precipitation_mm": 0.0,
    "pm2_5": 23.6,
    "pm10": 33.2,
    "us_aqi": 82
  },
  {
    "name": "Kamakshipalya",
    "lat": 12.982,
    "lon": 77.538,
    "temperature_c": 33.0,
    "humidity_pct": 37,
    "precipitation_mm": 0.0,
    "pm2_5": 24.3,
    "pm10": 33.5,
    "us_aqi": 84
  },
  {
    "name": "BEL Layout",
    "lat": 13.028,
    "lon": 77.539,
    "temperature_c": 33.4,
    "humidity_pct": 35,
    "precipitation_mm": 0.0,
    "pm2_5": 23.6,
    "pm10": 33.2,
    "us_aqi": 82
  },
  {
    "name": "Girinagar",
    "lat": 12.938,
    "lon": 77.549,
    "temperature_c": 33.7,
    "humidity_pct": 35,
    "precipitation_mm": 0.0,
    "pm2_5": 24.3,
    "pm10": 33.5,
    "us_aqi": 84
  },
  {
    "name": "Subramanyapura",
    "lat": 12.9068,
    "lon": 77.5361,
    "temperature_c": 33.1,
    "humidity_pct": 40,
    "precipitation_mm": 0.0,
    "pm2_5": 24.3,
    "pm10": 33.5,
    "us_aqi": 84
  },
  {
    "name": "Vasanthapura",
    "lat": 12.9042,
    "lon": 77.5193,
    "temperature_c": 33.3,
    "humidity_pct": 40,
    "precipitation_mm": 0.0,
    "pm2_5": 24.3,
    "pm10": 33.5,
    "us_aqi": 84
  },
  {
    "name": "Konanakunte",
    "lat": 12.8936,
    "lon": 77.5546,
    "temperature_c": 33.0,
    "humidity_pct": 40,
    "precipitation_mm": 0.0,
    "pm2_5": 24.3,
    "pm10": 33.5,
    "us_aqi": 84
  },
  {
    "name": "Talaghattapura",
    "lat": 12.8677,
    "lon": 77.5274,
    "temperature_c": 32.9,
    "humidity_pct": 40,
    "precipitation_mm": 0.0,
    "pm2_5": 24.3,
    "pm10": 33.5,
    "us_aqi": 84
  },
  {
    "name": "Langford Town",
    "lat": 12.9545,
    "lon": 77.5968,
    "temperature_c": 33.0,
    "humidity_pct": 36,
    "precipitation_mm": 0.0,
    "pm2_5": 24.3,
    "pm10": 33.5,
    "us_aqi": 84
  },
  {
    "name": "Ulsoor",
    "lat": 12.9839,
    "lon": 77.628,
    "temperature_c": 32.9,
    "humidity_pct": 36,
    "precipitation_mm": 0.0,
    "pm2_5": 24.3,
    "pm10": 33.5,
    "us_aqi": 84
  },
  {
    "name": "Vasanth Nagar",
    "lat": 12.9972,
    "lon": 77.5932,
    "temperature_c": 32.7,
    "humidity_pct": 36,
    "precipitation_mm": 0.0,
    "pm2_5": 24.3,
    "pm10": 33.5,
    "us_aqi": 84
  },
  {
    "name": "Victoria Layout",
    "lat": 12.9677,
    "lon": 77.6176,
    "temperature_c": 32.8,
    "humidity_pct": 36,
    "precipitation_mm": 0.0,
    "pm2_5": 24.3,
    "pm10": 33.5,
    "us_aqi": 84
  },
  {
    "name": "Kodigehalli",
    "lat": 13.0491,
    "lon": 77.6131,
    "temperature_c": 33.0,
    "humidity_pct": 36,
    "precipitation_mm": 0.0,
    "pm2_5": 23.6,
    "pm10": 33.2,
    "us_aqi": 82
  },
  {
    "name": "Panathur",
    "lat": 12.9319,
    "lon": 77.6865,
    "temperature_c": 33.2,
    "humidity_pct": 41,
    "precipitation_mm": 0.0,
    "pm2_5": 24.3,
    "pm10": 33.5,
    "us_aqi": 84
  },
  {
    "name": "Devarabeesanahalli",
    "lat": 12.9705,
    "lon": 77.707,
    "temperature_c": 32.8,
    "humidity_pct": 34,
    "precipitation_mm": 0.0,
    "pm2_5": 24.3,
    "pm10": 33.5,
    "us_aqi": 84
  },
  {
    "name": "Garudacharpalya",
    "lat": 12.9848,
    "lon": 77.6836,
    "temperature_c": 32.9,
    "humidity_pct": 36,
    "precipitation_mm": 0.0,
    "pm2_5": 24.3,
    "pm10": 33.5,
    "us_aqi": 84
  },
  {
    "name": "Hagadur",
    "lat": 12.9757,
    "lon": 77.76,
    "temperature_c": 32.8,
    "humidity_pct": 34,
    "precipitation_mm": 0.0,
    "pm2_5": 24.3,
    "pm10": 33.5,
    "us_aqi": 84
  },
  {
    "name": "Thubarahalli",
    "lat": 12.9626,
    "lon": 77.7198,
    "temperature_c": 32.8,
    "humidity_pct": 34,
    "precipitation_mm": 0.0,
    "pm2_5": 24.3,
    "pm10": 33.5,
    "us_aqi": 84
  }
]