[
  {
    "name": "Indiranagar",
    "lat": 12.9784,
    "lon": 77.6408,
    "temperature_c": 31.4,
    "humidity_pct": 45,
    "precipitation_mm": 0.0,
    "pm2_5": 29.6,
    "pm10": 40.2,
    "us_aqi": 87
  },
  {
    "name": "Koramangala",
    "lat": 12.9352,
    "lon": 77.6245,
    "temperature_c": 32.0,
    "humidity_pct": 44,
    "precipitation_mm": 0.0,
    "pm2_5": 29.6,
    "pm10": 40.2,
    "us_aqi": 87
  },
  {
    "name": "Whitefield",
    "lat": 12.9742,
    "lon": 77.7424,
    "temperature_c": 31.3,
    "humidity_pct": 43,
    "precipitation_mm": 0.0,
    "pm2_5": 29.6,
    "pm10": 40.2,
    "us_aqi": 87
  },
  {
    "name": "BTM Layout",
    "lat": 12.9166,
    "lon": 77.6101,
    "temperature_c": 31.9,
    "humidity_pct": 44,
    "precipitation_mm": 0.0,
    "pm2_5": 29.6,
    "pm10": 40.2,
    "us_aqi": 87
  },
  {
    "name": "Yelahanka",
    "lat": 13.1005,
    "lon": 77.5963,
    "temperature_c": 32.6,
    "humidity_pct": 39,
    "precipitation_mm": 0.0,
    "pm2_5": 29.2,
    "pm10": 40.2,
    "us_aqi": 84
  },
  {
    "name": "Electronic City",
    "lat": 12.8468,
    "lon": 77.668,
    "temperature_c": 31.7,
    "humidity_pct": 44,
    "precipitation_mm": 0.0,
    "pm2_5": 29.6,
    "pm10": 40.2,
    "us_aqi": 87
  },
  {
    "name": "Cunningham Road",
    "lat": 12.9833,
    "lon": 77.5933,
    "temperature_c": 31.2,
    "humidity_pct": 45,
    "precipitation_mm": 0.0,
    "pm2_5": 29.6,
    "pm10": 40.2,
    "us_aqi": 87
  },
  {
    "name": "KR Puram",
    "lat": 13.0067,
    "lon": 77.6928,
    "temperature_c": 31.2,
    "humidity_pct": 43,
    "precipitation_mm": 0.0,
    "pm2_5": 29.2,
    "pm10": 40.2,
    "us_aqi": 84
  },
  {
    "name": "Mahadevapura",
    "lat": 12.994,
    "lon": 77.7127,
    "temperature_c": 31.2,
    "humidity_pct": 43,
    "precipitation_mm": 0.0,
    "pm2_5": 29.6,
    "pm10": 40.2,
    "us_aqi": 87
  },
  {
    "name": "Peenya",
    "lat": 13.029,
    "lon": 77.515,
    "temperature_c": 31.4,
    "humidity_pct": 45,
    "precipitation_mm": 0.0,
    "pm2_5": 29.2,
    "pm10": 40.2,
    "us_aqi": 84
  },
  {
    "name": "Nagarbhavi",
    "lat": 12.9625,
    "lon": 77.514,
    "temperature_c": 31.9,
    "humidity_pct": 45,
    "precipitation_mm": 0.0,
    "pm2_5": 29.6,
    "pm10": 40.2,
    "us_aqi": 87
  },
  {
    "name": "Kengeri",
    "lat": 12.9143,
    "lon": 77.4829,
    "temperature_c": 32.2,
    "humidity_pct": 46,
    "precipitation_mm": 0.0,
    "pm2_5": 29.6,
    "pm10": 40.2,
    "us_aqi": 87
  },
  {
    "name": "Begur",
    "lat": 12.8668,
    "lon": 77.6241,
    "temperature_c": 31.8,
    "humidity_pct": 44,
    "precipitation_mm": 0.0,
    "pm2_5": 29.6,
    "pm10": 40.2,
    "us_aqi": 87
  },
  {
    "name": "Kasavanahalli",
    "lat": 12.9042,
    "lon": 77.6765,
    "temperature_c": 31.9,
    "humidity_pct": 44,
    "precipitation_mm": 0.0,
    "pm2_5": 29.6,
    "pm10": 40.2,
    "us_aqi": 87
  },
  {
    "name": "Haralur",
    "lat": 12.9173,
    "lon": 77.683,
    "temperature_c": 32.1,
    "humidity_pct": 44,
    "precipitation_mm": 0.0,
    "pm2_5": 29.6,
    "pm10": 40.2,
    "us_aqi": 87
  },
  {
    "name": "Chandra Layout",
    "lat": 12.976,
    "lon": 77.527,
    "temperature_c": 31.7,
    "humidity_pct": 45,
    "precipitation_mm": 0.0,
    "pm2_5": 29.6,
    "pm10": 40.2,
    "us_aqi": 87
  },
  {
    "name": "Herohalli",
    "lat": 13.015,
    "lon": 77.51,
    "temperature_c": 31.3,
    "humidity_pct": 45,
    "precipitation_mm": 0.0,
    "pm2_5": 29.2,
    "pm10": 40.2,
    "us_aqi": 84
  },
  {
    "name": "Hegganahalli",
    "lat": 12.986,
    "lon": 77.518,
    "temperature_c": 32.1,
    "humidity_pct": 43,
    "precipitation_mm": 0.0,
    "pm2_5": 29.6,
    "pm10": 40.2,
    "us_aqi": 87
  },
  {
    "name": "Chord Road",
    "lat": 12.995,
    "lon": 77.546,
    "temperature_c": 31.7,
    "humidity_pct": 43,
    "precipitation_mm": 0.0,
    "pm2_5": 29.6,
    "pm10": 40.2,
    "us_aqi": 87
  },
  {
    "name": "Konanakunte",
    "lat": 12.8936,
    "lon": 77.5546,
    "temperature_c": 32.2,
    "humidity_pct": 44,
    "precipitation_mm": 0.0,
    "pm2_5": 29.6,
    "pm10": 40.2,
    "us_aqi": 87
  },
  {
    "name": "Talaghattapura",
    "lat": 12.8677,
    "lon": 77.5274,
    "temperature_c": 32.1,
    "humidity_pct": 44,
    "precipitation_mm": 0.0,
    "pm2_5": 29.6,
    "pm10": 40.2,
    "us_aqi": 87
  },
  {
    "name": "Sarakki",
    "lat": 12.9154,
    "lon": 77.5657,
    "temperature_c": 32.4,
    "humidity_pct": 42,
    "precipitation_mm": 0.0,
    "pm2_5": 29.6,
    "pm10": 40.2,
    "us_aqi": 87
  },
  {
    "name": "Langford Town",
    "lat": 12.9545,
    "lon": 77.5968,
    "temperature_c": 31.9,
    "humidity_pct": 43,
    "precipitation_mm": 0.0,
    "pm2_5": 29.6,
    "pm10": 40.2,
    "us_aqi": 87
  },
  {
    "name": "HAL",
    "lat": 12.9553,
    "lon": 77.6698,
    "temperature_c": 31.8,
    "humidity_pct": 43,
    "precipitation_mm": 0.0,
    "pm2_5": 29.6,
    "pm10": 40.2,
    "us_aqi": 87
  },
  {
    "name": "Kodigehalli",
    "lat": 13.0491,
    "lon": 77.6131,
    "temperature_c": 31.9,
    "humidity_pct": 43,
    "precipitation_mm": 0.0,
    "pm2_5": 29.2,
    "pm10": 40.2,
    "us_aqi": 84
  },
  {
    "name": "Kaggadasapura",
    "lat": 12.9974,
    "lon": 77.6735,
    "temperature_c": 31.8,
    "humidity_pct": 43,
    "precipitation_mm": 0.0,
    "pm2_5": 29.6,
    "pm10": 40.2,
    "us_aqi": 87
  },
  {
    "name": "Carmelaram",
    "lat": 12.8904,
    "lon": 77.7098,
    "temperature_c": 31.6,
    "humidity_pct": 41,
    "precipitation_mm": 0.0,
    "pm2_5": 29.6,
    "pm10": 40.2,
    "us_aqi": 87
  },
  {
    "name": "Thubarahalli",
    "lat": 12.9626,
    "lon": 77.7198,
    "temperature_c": 31.6,
    "humidity_pct": 41,
    "precipitation_mm": 0.0,
    "pm2_5": 29.6,
    "pm10": 40.2,
    "us_aqi": 87
  }
]