[
  {
    "name": "Indiranagar",
    "lat": 12.9784,
    "lon": 77.6408,
    "temperature_c": 24.8,
    "humidity_pct": 70,
    "precipitation_mm": 0.2,
    "pm2_5": 6.3,
    "pm10": 12.1,
    "us_aqi": 60
  },
  {
    "name": "Koramangala",
    "lat": 12.9352,
    "lon": 77.6245,
    "temperature_c": 24.8,
    "humidity_pct": 70,
    "precipitation_mm": 0.2,
    "pm2_5": 6.3,
    "pm10": 12.1,
    "us_aqi": 60
  },
  {
    "name": "Whitefield",
    "lat": 12.9742,
    "lon": 77.7424,
    "temperature_c": 25.5,
    "humidity_pct": 67,
    "precipitation_mm": 0.1,
    "pm2_5": 6.3,
    "pm10": 12.1,
    "us_aqi": 60
  },
  {
    "name": "Jayanagar",
    "lat": 12.9308,
    "lon": 77.5838,
    "temperature_c": 23.4,
    "humidity_pct": 86,
    "precipitation_mm": 0.9,
    "pm2_5": 6.3,
    "pm10": 12.1,
    "us_aqi": 60
  },
  {
    "name": "HSR Layout",
    "lat": 12.9116,
    "lon": 77.6473,
    "temperature_c": 23.6,
    "humidity_pct": 84,
    "precipitation_mm": 0.5,
    "pm2_5": 6.3,
    "pm10": 12.1,
    "us_aqi": 60
  },
  {
    "name": "Malleshwaram",
    "lat": 13.0035,
    "lon": 77.571,
    "temperature_c": 24.6,
    "humidity_pct": 71,
    "precipitation_mm": 0.0,
    "pm2_5": 6.2,
    "pm10": 12.2,
    "us_aqi": 60
  },
  {
    "name": "Hebbal",
    "lat": 13.035,
    "lon": 77.597,
    "temperature_c": 25.0,
    "humidity_pct": 68,
    "precipitation_mm": 0.2,
    "pm2_5": 6.2,
    "pm10": 12.2,
    "us_aqi": 60
  },
  {
    "name": "Rajajinagar",
    "lat": 12.9922,
    "lon": 77.5555,
    "temperature_c": 24.5,
    "humidity_pct": 72,
    "precipitation_mm": 0.0,
    "pm2_5": 6.7,
    "pm10": 13.3,
    "us_aqi": 59
  },
  {
    "name": "JP Nagar",
    "lat": 12.9063,
    "lon": 77.5857,
    "temperature_c": 23.6,
    "humidity_pct": 85,
    "precipitation_mm": 0.9,
    "pm2_5": 6.7,
    "pm10": 13.3,
    "us_aqi": 59
  },
  {
    "name": "Marathahalli",
    "lat": 12.9591,
    "lon": 77.6974,
    "temperature_c": 25.2,
    "humidity_pct": 69,
    "precipitation_mm": 0.1,
    "pm2_5": 6.7,
    "pm10": 13.3,
    "us_aqi": 59
  },
  {
    "name": "BTM Layout",
    "lat": 12.9166,
    "lon": 77.6101,
    "temperature_c": 23.6,
    "humidity_pct": 85,
    "precipitation_mm": 0.9,
    "pm2_5": 6.7,
    "pm10": 13.3,
    "us_aqi": 59
  },
  {
    "name": "Yelahanka",
    "lat": 13.1005,
    "lon": 77.5963,
    "temperature_c": 24.4,
    "humidity_pct": 74,
    "precipitation_mm": 0.2,
    "pm2_5": 6.8,
    "pm10": 13.7,
    "us_aqi": 59
  },
  {
    "name": "Bellandur",
    "lat": 12.9257,
    "lon": 77.6762,
    "temperature_c": 23.6,
    "humidity_pct": 86,
    "precipitation_mm": 0.5,
    "pm2_5": 6.7,
    "pm10": 13.3,
    "us_aqi": 59
  },
  {
    "name": "Sarjapur",
    "lat": 12.8855,
    "lon": 77.742,
    "temperature_c": 24.5,
    "humidity_pct": 78,
    "precipitation_mm": 0.3,
    "pm2_5": 6.7,
    "pm10": 13.3,
    "us_aqi": 59
  },
  {
    "name": "Bannerghatta Road",
    "lat": 12.8933,
    "lon": 77.5975,
    "temperature_c": 23.6,
    "humidity_pct": 85,
    "precipitation_mm": 0.9,
    "pm2_5": 6.7,
    "pm10": 13.3,
    "us_aqi": 59
  },
  {
    "name": "Vijayanagar",
    "lat": 12.9718,
    "lon": 77.5348,
    "temperature_c": 24.5,
    "humidity_pct": 72,
    "precipitation_mm": 0.0,
    "pm2_5": 6.7,
    "pm10": 13.3,
    "us_aqi": 59
  },
  {
    "name": "RT Nagar",
    "lat": 13.02,
    "lon": 77.596,
    "temperature_c": 24.7,
    "humidity_pct": 70,
    "precipitation_mm": 0.2,
    "pm2_5": 6.8,
    "pm10": 13.7,
    "us_aqi": 59
  },
  {
    "name": "Cox Town",
    "lat": 12.993,
    "lon": 77.619,
    "temperature_c": 24.6,
    "humidity_pct": 73,
    "precipitation_mm": 0.2,
    "pm2_5": 6.7,
    "pm10": 13.3,
    "us_aqi": 59
  },
  {
    "name": "Sadashivanagar",
    "lat": 13.005,
    "lon": 77.58,
    "temperature_c": 24.5,
    "humidity_pct": 72,
    "precipitation_mm": 0.0,
    "pm2_5": 6.8,
    "pm10": 13.7,
    "us_aqi": 59
  },
  {
    "name": "Dollars Colony",
    "lat": 13.042,
    "lon": 77.591,
    "temperature_c": 24.2,
    "humidity_pct": 75,
    "precipitation_mm": 0.1,
    "pm2_5": 6.8,
    "pm10": 13.7,
    "us_aqi": 59
  },
  {
    "name": "KR Puram",
    "lat": 13.0067,
    "lon": 77.6928,
    "temperature_c": 24.9,
    "humidity_pct": 69,
    "precipitation_mm": 0.2,
    "pm2_5": 6.8,
    "pm10": 13.7,
    "us_aqi": 59
  },
  {
    "name": "Mahadevapura",
    "lat": 12.994,
    "lon": 77.7127,
    "temperature_c": 25.2,
    "humidity_pct": 69,
    "precipitation_mm": 0.1,
    "pm2_5": 6.7,
    "pm10": 13.3,
    "us_aqi": 59
  },
  {
    "name": "Hennur",
    "lat": 13.042,
    "lon": 77.638,
    "temperature_c": 24.7,
    "humidity_pct": 70,
    "precipitation_mm": 0.2,
    "pm2_5": 6.8,
    "pm10": 13.7,
    "us_aqi": 59
  },
  {
    "name": "Nagavara",
    "lat": 13.0494,
    "lon": 77.6236,
    "temperature_c": 24.7,
    "humidity_pct": 70,
    "precipitation_mm": 0.2,
    "pm2_5": 6.8,
    "pm10": 13.7,
    "us_aqi": 59
  },
  {
    "name": "Banaswadi",
    "lat": 13.0013,
    "lon": 77.6456,
    "temperature_c": 24.6,
    "humidity_pct": 73,
    "precipitation_mm": 0.2,
    "pm2_5": 6.8,
    "pm10": 13.7,
    "us_aqi": 59
  },
  {
    "name": "Domlur",
    "lat": 12.9621,
    "lon": 77.6384,
    "temperature_c": 24.6,
    "humidity_pct": 73,
    "precipitation_mm": 0.2,
    "pm2_5": 6.7,
    "pm10": 13.3,
    "us_aqi": 59
  },
  {
    "name": "Ramamurthy Nagar",
    "lat": 13.0142,
    "lon": 77.6608,
    "temperature_c": 24.7,
    "humidity_pct": 70,
    "precipitation_mm": 0.2,
    "pm2_5": 6.8,
    "pm10": 13.7,
    "us_aqi": 59
  },
  {
    "name": "Brookefield",
    "lat": 12.9783,
    "lon": 77.7277,
    "temperature_c": 25.2,
    "humidity_pct": 69,
    "precipitation_mm": 0.1,
    "pm2_5": 6.7,
    "pm10": 13.3,
    "us_aqi": 59
  },
  {
    "name": "Varthur",
    "lat": 12.9388,
    "lon": 77.7472,
    "temperature_c": 25.2,
    "humidity_pct": 69,
    "precipitation_mm": 0.1,
    "pm2_5": 6.7,
    "pm10": 13.3,
    "us_aqi": 59
  },
  {
    "name": "Shivajinagar",
    "lat": 12.9894,
    "lon": 77.6012,
    "temperature_c": 24.5,
    "humidity_pct": 72,
    "precipitation_mm": 0.0,
    "pm2_5": 6.7,
    "pm10": 13.3,
    "us_aqi": 59
  },
  {
    "name": "Yeshwantpur",
    "lat": 13.0247,
    "lon": 77.5479,
    "temperature_c": 24.2,
    "humidity_pct": 75,
    "precipitation_mm": 0.1,
    "pm2_5": 6.8,
    "pm10": 13.7,
    "us_aqi": 59
  },
  {
    "name": "Peenya",
    "lat": 13.029,
    "lon": 77.515,
    "temperature_c": 24.2,
    "humidity_pct": 75,
    "precipitation_mm": 0.1,
    "pm2_5": 6.8,
    "pm10": 13.7,
    "us_aqi": 59
  },
  {
    "name": "Nagarbhavi",
    "lat": 12.9625,
    "lon": 77.514,
    "temperature_c": 24.6,
    "humidity_pct": 75,
    "precipitation_mm": 0.1,
    "pm2_5": 6.7,
    "pm10": 13.3,
    "us_aqi": 59
  },
  {
    "name": "Uttarahalli",
    "lat": 12.8914,
    "lon": 77.5519,
    "temperature_c": 23.3,
    "humidity_pct": 85,
    "precipitation_mm": 1.4,
    "pm2_5": 6.7,
    "pm10": 13.3,
    "us_aqi": 59
  },
  {
    "name": "Bommanahalli",
    "lat": 12.8932,
    "lon": 77.6198,
    "temperature_c": 23.4,
    "humidity_pct": 86,
    "precipitation_mm": 0.6,
    "pm2_5": 6.7,
    "pm10": 13.3,
    "us_aqi": 59
  },
  {
    "name": "Begur",
    "lat": 12.8668,
    "lon": 77.6241,
    "temperature_c": 23.4,
    "humidity_pct": 86,
    "precipitation_mm": 0.6,
    "pm2_5": 6.7,
    "pm10": 13.3,
    "us_aqi": 59
  },
  {
    "name": "Jakkur",
    "lat": 13.0742,
    "lon": 77.601,
    "temperature_c": 23.8,
    "humidity_pct": 78,
    "precipitation_mm": 0.5,
    "pm2_5": 6.8,
    "pm10": 13.7,
    "us_aqi": 59
  },
  {
    "name": "Padmanabhanagar",
    "lat": 12.9243,
    "lon": 77.5494,
    "temperature_c": 23.3,
    "humidity_pct": 85,
    "precipitation_mm": 1.4,
    "pm2_5": 6.7,
    "pm10": 13.3,
    "us_aqi": 59
  },
  {
    "name": "Old Madras Road",
    "lat": 13.005,
    "lon": 77.665,
    "temperature_c": 24.3,
    "humidity_pct": 74,
    "precipitation_mm": 0.2,
    "pm2_5": 6.8,
    "pm10": 13.7,
    "us_aqi": 59
  },
  {
    "name": "Kasavanahalli",
    "lat": 12.9042,
    "lon": 77.6765,
    "temperature_c": 23.4,
    "humidity_pct": 86,
    "precipitation_mm": 0.6,
    "pm2_5": 6.7,
    "pm10": 13.3,
    "us_aqi": 59
  },
  {
    "name": "Haralur",
    "lat": 12.9173,
    "lon": 77.683,
    "temperature_c": 23.4,
    "humidity_pct": 86,
    "precipitation_mm": 0.6,
    "pm2_5": 6.7,
    "pm10": 13.3,
    "us_aqi": 59
  },
  {
    "name": "RR Nagar",
    "lat": 12.9235,
    "lon": 77.5149,
    "temperature_c": 24.1,
    "humidity_pct": 83,
    "precipitation_mm": 1.4,
    "pm2_5": 6.7,
    "pm10": 13.3,
    "us_aqi": 59
  },
  {
    "name": "Jalahalli",
    "lat": 13.0527,
    "lon": 77.543,
    "temperature_c": 23.8,
    "humidity_pct": 77,
    "precipitation_mm": 0.7,
    "pm2_5": 6.8,
    "pm10": 13.7,
    "us_aqi": 59
  },
  {
    "name": "Dasarahalli",
    "lat": 13.048,
    "lon": 77.517,
    "temperature_c": 23.8,
    "humidity_pct": 77,
    "precipitation_mm": 0.7,
    "pm2_5": 6.8,
    "pm10": 13.7,
    "us_aqi": 59
  },
  {
    "name": "Mahalakshmi Layout",
    "lat": 13.018,
    "lon": 77.548,
    "temperature_c": 23.8,
    "humidity_pct": 77,
    "precipitation_mm": 0.7,
    "pm2_5": 6.8,
    "pm10": 13.7,
    "us_aqi": 59
  },
  {
    "name": "Nandini Layout",
    "lat": 13.008,
    "lon": 77.532,
    "temperature_c": 23.8,
    "humidity_pct": 77,
    "precipitation_mm": 0.7,
    "pm2_5": 6.8,
    "pm10": 13.7,
    "us_aqi": 59
  },
  {
    "name": "Chandra Layout",
    "lat": 12.976,
    "lon": 77.527,
    "temperature_c": 24.1,
    "humidity_pct": 74,
    "precipitation_mm": 0.5,
    "pm2_5": 6.7,
    "pm10": 13.3,
    "us_aqi": 59
  },
  {
    "name": "Herohalli",
    "lat": 13.015,
    "lon": 77.51,
    "temperature_c": 23.3,
    "humidity_pct": 84,
    "precipitation_mm": 0.7,
    "pm2_5": 6.8,
    "pm10": 13.7,
    "us_aqi": 59
  },
  {
    "name": "Mathikere",
    "lat": 13.028,
    "lon": 77.563,
    "temperature_c": 23.8,
    "humidity_pct": 77,
    "precipitation_mm": 0.7,
    "pm2_5": 6.8,
    "pm10": 13.7,
    "us_aqi": 59
  },
  {
    "name": "Bhattarahalli",
    "lat": 12.901,
    "lon": 77.498,
    "temperature_c": 24.1,
    "humidity_pct": 83,
    "precipitation_mm": 1.4,
    "pm2_5": 6.7,
    "pm10": 13.3,
    "us_aqi": 59
  },
  {
    "name": "BEL Layout",
    "lat": 13.028,
    "lon": 77.539,
    "temperature_c": 23.8,
    "humidity_pct": 77,
    "precipitation_mm": 0.7,
    "pm2_5": 6.8,
    "pm10": 13.7,
    "us_aqi": 59
  },
  {
    "name": "Girinagar",
    "lat": 12.938,
    "lon": 77.549,
    "temperature_c": 24.1,
    "humidity_pct": 74,
    "precipitation_mm": 0.5,
    "pm2_5": 6.7,
    "pm10": 13.3,
    "us_aqi": 59
  },
  {
    "name": "Hegganahalli",
    "lat": 12.986,
    "lon": 77.518,
    "temperature_c": 24.2,
    "humidity_pct": 78,
    "precipitation_mm": 1.1,
    "pm2_5": 6.7,
    "pm10": 13.3,
    "us_aqi": 59
  },
  {
    "name": "Chord Road",
    "lat": 12.995,
    "lon": 77.546,
    "temperature_c": 24.1,
    "humidity_pct": 74,
    "precipitation_mm": 0.5,
    "pm2_5": 6.7,
    "pm10": 13.3,
    "us_aqi": 59
  },
  {
    "name": "Arekere",
    "lat": 12.8853,
    "lon": 77.6096,
    "temperature_c": 23.3,
    "humidity_pct": 85,
    "precipitation_mm": 1.4,
    "pm2_5": 6.7,
    "pm10": 13.3,
    "us_aqi": 59
  },
  {
    "name": "Hulimavu",
    "lat": 12.8741,
    "lon": 77.6052,
    "temperature_c": 23.3,
    "humidity_pct": 85,
    "precipitation_mm": 1.4,
    "pm2_5": 6.7,
    "pm10": 13.3,
    "us_aqi": 59
  },
  {
    "name": "Gottigere",
    "lat": 12.854,
    "lon": 77.587,
    "temperature_c": 22.7,
    "humidity_pct": 93,
    "precipitation_mm": 2.4,
    "pm2_5": 6.7,
    "pm10": 13.3,
    "us_aqi": 59
  },
  {
    "name": "Akshayanagar",
    "lat": 12.8685,
    "lon": 77.624,
    "temperature_c": 23.4,
    "humidity_pct": 86,
    "precipitation_mm": 0.6,
    "pm2_5": 6.7,
    "pm10": 13.3,
    "us_aqi": 59
  },
  {
    "name": "Hongasandra",
    "lat": 12.8972,
    "lon": 77.6132,
    "temperature_c": 23.3,
    "humidity_pct": 85,
    "precipitation_mm": 1.4,
    "pm2_5": 6.7,
    "pm10": 13.3,
    "us_aqi": 59
  },
  {
    "name": "Subramanyapura",
    "lat": 12.9068,
    "lon": 77.5361,
    "temperature_c": 23.3,
    "humidity_pct": 85,
    "precipitation_mm": 1.4,
    "pm2_5": 6.7,
    "pm10": 13.3,
    "us_aqi": 59
  },
  {
    "name": "Vasanthapura",
    "lat": 12.9042,
    "lon": 77.5193,
    "temperature_c": 24.1,
    "humidity_pct": 83,
    "precipitation_mm": 1.4,
    "pm2_5": 6.7,
    "pm10": 13.3,
    "us_aqi": 59
  },
  {
    "name": "Konanakunte",
    "lat": 12.8936,
    "lon": 77.5546,
    "temperature_c": 23.3,
    "humidity_pct": 85,
    "precipitation_mm": 1.4,
    "pm2_5": 6.7,
    "pm10": 13.3,
    "us_aqi": 59
  },
  {
    "name": "Talaghattapura",
    "lat": 12.8677,
    "lon": 77.5274,
    "temperature_c": 23.8,
    "humidity_pct": 88,
    "precipitation_mm": 2.9,
    "pm2_5": 6.7,
    "pm10": 13.3,
    "us_aqi": 59
  },
  {
    "name": "Sarakki",
    "lat": 12.9154,
    "lon": 77.5657,
    "temperature_c": 23.3,
    "humidity_pct": 85,
    "precipitation_mm": 1.4,
    "pm2_5": 6.7,
    "pm10": 13.3,
    "us_aqi": 59
  },
  {
    "name": "Puttenahalli",
    "lat": 12.899,
    "lon": 77.5707,
    "temperature_c": 23.3,
    "humidity_pct": 85,
    "precipitation_mm": 1.4,
    "pm2_5": 6.7,
    "pm10": 13.3,
    "us_aqi": 59
  },
  {
    "name": "Chikkalasandra",
    "lat": 12.9135,
    "lon": 77.5552,
    "temperature_c": 23.3,
    "humidity_pct": 85,
    "precipitation_mm": 1.4,
    "pm2_5": 6.7,
    "pm10": 13.3,
    "us_aqi": 59
  },
  {
    "name": "Raghuvanahalli",
    "lat": 12.879,
    "lon": 77.5485,
    "temperature_c": 23.3,
    "humidity_pct": 85,
    "precipitation_mm": 1.4,
    "pm2_5": 6.7,
    "pm10": 13.3,
    "us_aqi": 59
  },
  {
    "name": "Singasandra",
    "lat": 12.8938,
    "lon": 77.6299,
    "temperature_c": 23.4,
    "humidity_pct": 86,
    "precipitation_mm": 0.6,
    "pm2_5": 6.7,
    "pm10": 13.3,
    "us_aqi": 59
  },
  {
    "name": "Chandapura",
    "lat": 12.8278,
    "lon": 77.6531,
    "temperature_c": 22.8,
    "humidity_pct": 90,
    "precipitation_mm": 0.7,
    "pm2_5": 6.7,
    "pm10": 13.3,
    "us_aqi": 59
  },
  {
    "name": "MG Road",
    "lat": 12.9753,
    "lon": 77.6076,
    "temperature_c": 23.8,
    "humidity_pct": 76,
    "precipitation_mm": 0.2,
    "pm2_5": 6.7,
    "pm10": 13.3,
    "us_aqi": 59
  },
  {
    "name": "Richmond Town",
    "lat": 12.96,
    "lon": 77.599,
    "temperature_c": 23.5,
    "humidity_pct": 77,
    "precipitation_mm": 0.5,
    "pm2_5": 6.7,
    "pm10": 13.3,
    "us_aqi": 59
  },
  {
    "name": "Langford Town",
    "lat": 12.9545,
    "lon": 77.5968,
    "temperature_c": 23.5,
    "humidity_pct": 77,
    "precipitation_mm": 0.5,
    "pm2_5": 6.7,
    "pm10": 13.3,
    "us_aqi": 59
  },
  {
    "name": "Ulsoor",
    "lat": 12.9839,
    "lon": 77.628,
    "temperature_c": 23.8,
    "humidity_pct": 76,
    "precipitation_mm": 0.2,
    "pm2_5": 6.7,
    "pm10": 13.3,
    "us_aqi": 59
  },
  {
    "name": "Vasanth Nagar",
    "lat": 12.9972,
    "lon": 77.5932,
    "temperature_c": 23.5,
    "humidity_pct": 77,
    "precipitation_mm": 0.5,
    "pm2_5": 6.7,
    "pm10": 13.3,
    "us_aqi": 59
  },
  {
    "name": "Victoria Layout",
    "lat": 12.9677,
    "lon": 77.6176,
    "temperature_c": 23.8,
    "humidity_pct": 76,
    "precipitation_mm": 0.2,
    "pm2_5": 6.7,
    "pm10": 13.3,
    "us_aqi": 59
  },
  {
    "name": "Horamavu",
    "lat": 13.0055,
    "lon": 77.6648,
    "temperature_c": 23.8,
    "humidity_pct": 76,
    "precipitation_mm": 0.2,
    "pm2_5": 6.8,
    "pm10": 13.7,
    "us_aqi": 59
  },
  {
    "name": "HAL",
    "lat": 12.9553,
    "lon": 77.6698,
    "temperature_c": 23.8,
    "humidity_pct": 76,
    "precipitation_mm": 0.2,
    "pm2_5": 6.7,
    "pm10": 13.3,
    "us_aqi": 59
  },
  {
    "name": "Kodigehalli",
    "lat": 13.0491,
    "lon": 77.6131,
    "temperature_c": 23.7,
    "humidity_pct": 76,
    "precipitation_mm": 0.4,
    "pm2_5": 6.8,
    "pm10": 13.7,
    "us_aqi": 59
  },
  {
    "name": "Kaggadasapura",
    "lat": 12.9974,
    "lon": 77.6735,
    "temperature_c": 23.8,
    "humidity_pct": 76,
    "precipitation_mm": 0.2,
    "pm2_5": 6.7,
    "pm10": 13.3,
    "us_aqi": 59
  },
  {
    "name": "Kundalahalli",
    "lat": 12.9718,
    "lon": 77.7157,
    "temperature_c": 24.9,
    "humidity_pct": 69,
    "precipitation_mm": 0.1,
    "pm2_5": 6.7,
    "pm10": 13.3,
    "us_aqi": 59
  },
  {
    "name": "Kadugodi",
    "lat": 13.0016,
    "lon": 77.758,
    "temperature_c": 24.9,
    "humidity_pct": 69,
    "precipitation_mm": 0.1,
    "pm2_5": 6.8,
    "pm10": 13.7,
    "us_aqi": 59
  },
  {
    "name": "Panathur",
    "lat": 12.9319,
    "lon": 77.6865,
    "temperature_c": 23.0,
    "humidity_pct": 86,
    "precipitation_mm": 0.6,
    "pm2_5": 6.7,
    "pm10": 13.3,
    "us_aqi": 59
  },
  {
    "name": "Munnekolala",
    "lat": 12.9484,
    "lon": 77.71,
    "temperature_c": 24.9,
    "humidity_pct": 69,
    "precipitation_mm": 0.1,
    "pm2_5": 6.7,
    "pm10": 13.3,
    "us_aqi": 59
  },
  {
    "name": "Nallurhalli",
    "lat": 12.954,
    "lon": 77.731,
    "temperature_c": 24.9,
    "humidity_pct": 69,
    "precipitation_mm": 0.1,
    "pm2_5": 6.7,
    "pm10": 13.3,
    "us_aqi": 59
  },
  {
    "name": "Vibhutipura",
    "lat": 12.9655,
    "lon": 77.664,
    "temperature_c": 23.8,
    "humidity_pct": 76,
    "precipitation_mm": 0.2,
    "pm2_5": 6.7,
    "pm10": 13.3,
    "us_aqi": 59
  },
  {
    "name": "Carmelaram",
    "lat": 12.8904,
    "lon": 77.7098,
    "temperature_c": 24.6,
    "humidity_pct": 77,
    "precipitation_mm": 0.2,
    "pm2_5": 6.7,
    "pm10": 13.3,
    "us_aqi": 59
  },
  {
    "name": "Dommasandra",
    "lat": 12.8616,
    "lon": 77.7433,
    "temperature_c": 24.2,
    "humidity_pct": 79,
    "precipitation_mm": 0.2,
    "pm2_5": 6.7,
    "pm10": 13.3,
    "us_aqi": 59
  },
  {
    "name": "Devarabeesanahalli",
    "lat": 12.9705,
    "lon": 77.707,
    "temperature_c": 24.9,
    "humidity_pct": 69,
    "precipitation_mm": 0.1,
    "pm2_5": 6.7,
    "pm10": 13.3,
    "us_aqi": 59
  },
  {
    "name": "Garudacharpalya",
    "lat": 12.9848,
    "lon": 77.6836,
    "temperature_c": 23.8,
    "humidity_pct": 76,
    "precipitation_mm": 0.2,
    "pm2_5": 6.7,
    "pm10": 13.3,
    "us_aqi": 59
  },
  {
    "name": "Hagadur",
    "lat": 12.9757,
    "lon": 77.76,
    "temperature_c": 24.9,
    "humidity_pct": 69,
    "precipitation_mm": 0.1,
    "pm2_5": 6.7,
    "pm10": 13.3,
    "us_aqi": 59
  },
  {
    "name": "Thubarahalli",
    "lat": 12.9626,
    "lon": 77.7198,
    "temperature_c": 24.9,
    "humidity_pct": 69,
    "precipitation_mm": 0.1,
    "pm2_5": 6.7,
    "pm10": 13.3,
    "us_aqi": 59
  }
]