[
  {
    "name": "Indiranagar",
    "lat": 12.9784,
    "lon": 77.6408,
    "temperature_c": 32.1,
    "humidity_pct": 43,
    "precipitation_mm": 0.0,
    "pm2_5": 28.9,
    "pm10": 40.5,
    "us_aqi": 94
  },
  {
    "name": "Koramangala",
    "lat": 12.9352,
    "lon": 77.6245,
    "temperature_c": 32.5,
    "humidity_pct": 44,
    "precipitation_mm": 0.0,
    "pm2_5": 28.9,
    "pm10": 40.5,
    "us_aqi": 94
  },
  {
    "name": "Whitefield",
    "lat": 12.9742,
    "lon": 77.7424,
    "temperature_c": 32.1,
    "humidity_pct": 42,
    "precipitation_mm": 0.0,
    "pm2_5": 28.9,
    "pm10": 40.5,
    "us_aqi": 94
  },
  {
    "name": "Yelahanka",
    "lat": 13.1005,
    "lon": 77.5963,
    "temperature_c": 33.7,
    "humidity_pct": 35,
    "precipitation_mm": 0.0,
    "pm2_5": 30.4,
    "pm10": 46.3,
    "us_aqi": 94
  },
  {
    "name": "Electronic City",
    "lat": 12.8468,
    "lon": 77.668,
    "temperature_c": 32.6,
    "humidity_pct": 42,
    "precipitation_mm": 0.0,
    "pm2_5": 28.9,
    "pm10": 43.8,
    "us_aqi": 94
  },
  {
    "name": "Bellandur",
    "lat": 12.9257,
    "lon": 77.6762,
    "temperature_c": 32.9,
    "humidity_pct": 42,
    "precipitation_mm": 0.0,
    "pm2_5": 28.9,
    "pm10": 43.8,
    "us_aqi": 94
  },
  {
    "name": "Cunningham Road",
    "lat": 12.9833,
    "lon": 77.5933,
    "temperature_c": 32.3,
    "humidity_pct": 42,
    "precipitation_mm": 0.0,
    "pm2_5": 28.9,
    "pm10": 43.8,
    "us_aqi": 94
  },
  {
    "name": "Banaswadi",
    "lat": 13.0013,
    "lon": 77.6456,
    "temperature_c": 32.4,
    "humidity_pct": 42,
    "precipitation_mm": 0.0,
    "pm2_5": 30.4,
    "pm10": 46.3,
    "us_aqi": 94
  },
  {
    "name": "Domlur",
    "lat": 12.9621,
    "lon": 77.6384,
    "temperature_c": 32.6,
    "humidity_pct": 42,
    "precipitation_mm": 0.0,
    "pm2_5": 28.9,
    "pm10": 43.8,
    "us_aqi": 94
  },
  {
    "name": "Ramamurthy Nagar",
    "lat": 13.0142,
    "lon": 77.6608,
    "temperature_c": 32.4,
    "humidity_pct": 42,
    "precipitation_mm": 0.0,
    "pm2_5": 30.4,
    "pm10": 46.3,
    "us_aqi": 94
  },
  {
    "name": "Peenya",
    "lat": 13.029,
    "lon": 77.515,
    "temperature_c": 32.7,
    "humidity_pct": 41,
    "precipitation_mm": 0.0,
    "pm2_5": 30.4,
    "pm10": 46.3,
    "us_aqi": 94
  },
  {
    "name": "Begur",
    "lat": 12.8668,
    "lon": 77.6241,
    "temperature_c": 32.7,
    "humidity_pct": 42,
    "precipitation_mm": 0.0,
    "pm2_5": 28.9,
    "pm10": 43.8,
    "us_aqi": 94
  },
  {
    "name": "Jakkur",
    "lat": 13.0742,
    "lon": 77.601,
    "temperature_c": 33.7,
    "humidity_pct": 35,
    "precipitation_mm": 0.0,
    "pm2_5": 30.4,
    "pm10": 46.3,
    "us_aqi": 94
  },
  {
    "name": "Padmanabhanagar",
    "lat": 12.9243,
    "lon": 77.5494,
    "temperature_c": 32.7,
    "humidity_pct": 42,
    "precipitation_mm": 0.0,
    "pm2_5": 28.9,
    "pm10": 43.8,
    "us_aqi": 94
  },
  {
    "name": "Old Madras Road",
    "lat": 13.005,
    "lon": 77.665,
    "temperature_c": 32.5,
    "humidity_pct": 42,
    "precipitation_mm": 0.0,
    "pm2_5": 30.4,
    "pm10": 46.3,
    "us_aqi": 94
  },
  {
    "name": "Haralur",
    "lat": 12.9173,
    "lon": 77.683,
    "temperature_c": 33.0,
    "humidity_pct": 42,
    "precipitation_mm": 0.0,
    "pm2_5": 28.9,
    "pm10": 43.8,
    "us_aqi": 94
  },
  {
    "name": "Nandini Layout",
    "lat": 13.008,
    "lon": 77.532,
    "temperature_c": 33.0,
    "humidity_pct": 41,
    "precipitation_mm": 0.0,
    "pm2_5": 30.4,
    "pm10": 46.3,
    "us_aqi": 94
  },
  {
    "name": "Bhattarahalli",
    "lat": 12.901,
    "lon": 77.498,
    "temperature_c": 33.0,
    "humidity_pct": 42,
    "precipitation_mm": 0.0,
    "pm2_5": 28.9,
    "pm10": 43.8,
    "us_aqi": 94
  },
  {
    "name": "Basaveshwara Nagar",
    "lat": 13.006,
    "lon": 77.535,
    "temperature_c": 33.0,
    "humidity_pct": 41,
    "precipitation_mm": 0.0,
    "pm2_5": 30.4,
    "pm10": 46.3,
    "us_aqi": 94
  },
  {
    "name": "BEL Layout",
    "lat": 13.028,
    "lon": 77.539,
    "temperature_c": 32.7,
    "humidity_pct": 41,
    "precipitation_mm": 0.0,
    "pm2_5": 30.4,
    "pm10": 46.3,
    "us_aqi": 94
  },
  {
    "name": "Gottigere",
    "lat": 12.854,
    "lon": 77.587,
    "temperature_c": 32.7,
    "humidity_pct": 42,
    "precipitation_mm": 0.0,
    "pm2_5": 28.9,
    "pm10": 43.8,
    "us_aqi": 94
  },
  {
    "name": "Vasanthapura",
    "lat": 12.9042,
    "lon": 77.5193,
    "temperature_c": 33.1,
    "humidity_pct": 42,
    "precipitation_mm": 0.0,
    "pm2_5": 28.9,
    "pm10": 43.8,
    "us_aqi": 94
  },
  {
    "name": "Sarakki",
    "lat": 12.9154,
    "lon": 77.5657,
    "temperature_c": 32.8,
    "humidity_pct": 42,
    "precipitation_mm": 0.0,
    "pm2_5": 28.9,
    "pm10": 43.8,
    "us_aqi": 94
  },
  {
    "name": "Raghuvanahalli",
    "lat": 12.879,
    "lon": 77.5485,
    "temperature_c": 32.7,
    "humidity_pct": 42,
    "precipitation_mm": 0.0,
    "pm2_5": 28.9,
    "pm10": 43.8,
    "us_aqi": 94
  },
  {
    "name": "Langford Town",
    "lat": 12.9545,
    "lon": 77.5968,
    "temperature_c": 32.6,
    "humidity_pct": 42,
    "precipitation_mm": 0.0,
    "pm2_5": 28.9,
    "pm10": 43.8,
    "us_aqi": 94
  },
  {
    "name": "Ulsoor",
    "lat": 12.9839,
    "lon": 77.628,
    "temperature_c": 32.5,
    "humidity_pct": 42,
    "precipitation_mm": 0.0,
    "pm2_5": 28.9,
    "pm10": 43.8,
    "us_aqi": 94
  },
  {
    "name": "Vasanth Nagar",
    "lat": 12.9972,
    "lon": 77.5932,
    "temperature_c": 32.3,
    "humidity_pct": 42,
    "precipitation_mm": 0.0,
    "pm2_5": 28.9,
    "pm10": 43.8,
    "us_aqi": 94
  },
  {
    "name": "Victoria Layout",
    "lat": 12.9677,
    "lon": 77.6176,
    "temperature_c": 32.4,
    "humidity_pct": 42,
    "precipitation_mm": 0.0,
    "pm2_5": 28.9,
    "pm10": 43.8,
    "us_aqi": 94
  },
  {
    "name": "HAL",
    "lat": 12.9553,
    "lon": 77.6698,
    "temperature_c": 33.0,
    "humidity_pct": 40,
    "precipitation_mm": 0.0,
    "pm2_5": 28.9,
    "pm10": 43.8,
    "us_aqi": 94
  },
  {
    "name": "Munnekolala",
    "lat": 12.9484,
    "lon": 77.71,
    "temperature_c": 32.8,
    "humidity_pct": 39,
    "precipitation_mm": 0.0,
    "pm2_5": 28.9,
    "pm10": 43.8,
    "us_aqi": 94
  },
  {
    "name": "Nallurhalli",
    "lat": 12.954,
    "lon": 77.731,
    "temperature_c": 32.9,
    "humidity_pct": 39,
    "precipitation_mm": 0.0,
    "pm2_5": 28.9,
    "pm10": 43.8,
    "us_aqi": 94
  },
  {
    "name": "Vibhutipura",
    "lat": 12.9655,
    "lon": 77.664,
    "temperature_c": 32.9,
    "humidity_pct": 40,
    "precipitation_mm": 0.0,
    "pm2_5": 28.9,
    "pm10": 43.8,
    "us_aqi": 94
  },
  {
    "name": "Carmelaram",
    "lat": 12.8904,
    "lon": 77.7098,
    "temperature_c": 32.4,
    "humidity_pct": 41,
    "precipitation_mm": 0.0,
    "pm2_5": 28.9,
    "pm10": 43.8,
    "us_aqi": 94
  }
]