[
  {
    "name": "Indiranagar",
    "lat": 12.9784,
    "lon": 77.6408,
    "temperature_c": 29.2,
    "humidity_pct": 56,
    "precipitation_mm": 0.0,
    "pm2_5": 24.2,
    "pm10": 35.6,
    "us_aqi": 86
  },
  {
    "name": "Koramangala",
    "lat": 12.9352,
    "lon": 77.6245,
    "temperature_c": 29.7,
    "humidity_pct": 56,
    "precipitation_mm": 0.0,
    "pm2_5": 24.2,
    "pm10": 35.6,
    "us_aqi": 86
  },
  {
    "name": "Whitefield",
    "lat": 12.9742,
    "lon": 77.7424,
    "temperature_c": 29.1,
    "humidity_pct": 55,
    "precipitation_mm": 0.0,
    "pm2_5": 24.2,
    "pm10": 35.6,
    "us_aqi": 86
  },
  {
    "name": "Marathahalli",
    "lat": 12.9591,
    "lon": 77.6974,
    "temperature_c": 29.1,
    "humidity_pct": 55,
    "precipitation_mm": 0.0,
    "pm2_5": 24.2,
    "pm10": 35.6,
    "us_aqi": 86
  },
  {
    "name": "BTM Layout",
    "lat": 12.9166,
    "lon": 77.6101,
    "temperature_c": 29.6,
    "humidity_pct": 56,
    "precipitation_mm": 0.0,
    "pm2_5": 24.2,
    "pm10": 35.6,
    "us_aqi": 86
  },
  {
    "name": "Yelahanka",
    "lat": 13.1005,
    "lon": 77.5963,
    "temperature_c": 30.1,
    "humidity_pct": 53,
    "precipitation_mm": 0.0,
    "pm2_5": 26.9,
    "pm10": 36.8,
    "us_aqi": 86
  },
  {
    "name": "Sadashivanagar",
    "lat": 13.005,
    "lon": 77.58,
    "temperature_c": 29.5,
    "humidity_pct": 54,
    "precipitation_mm": 0.0,
    "pm2_5": 26.9,
    "pm10": 36.8,
    "us_aqi": 86
  },
  {
    "name": "Dollars Colony",
    "lat": 13.042,
    "lon": 77.591,
    "temperature_c": 29.7,
    "humidity_pct": 54,
    "precipitation_mm": 0.0,
    "pm2_5": 26.9,
    "pm10": 36.8,
    "us_aqi": 86
  },
  {
    "name": "Cunningham Road",
    "lat": 12.9833,
    "lon": 77.5933,
    "temperature_c": 29.5,
    "humidity_pct": 54,
    "precipitation_mm": 0.0,
    "pm2_5": 24.2,
    "pm10": 35.6,
    "us_aqi": 86
  },
  {
    "name": "Shivajinagar",
    "lat": 12.9894,
    "lon": 77.6012,
    "temperature_c": 29.6,
    "humidity_pct": 54,
    "precipitation_mm": 0.0,
    "pm2_5": 24.2,
    "pm10": 35.6,
    "us_aqi": 86
  },
  {
    "name": "Yeshwantpur",
    "lat": 13.0247,
    "lon": 77.5479,
    "temperature_c": 29.9,
    "humidity_pct": 55,
    "precipitation_mm": 0.0,
    "pm2_5": 26.9,
    "pm10": 36.8,
    "us_aqi": 86
  },
  {
    "name": "Peenya",
    "lat": 13.029,
    "lon": 77.515,
    "temperature_c": 29.8,
    "humidity_pct": 55,
    "precipitation_mm": 0.0,
    "pm2_5": 26.9,
    "pm10": 36.8,
    "us_aqi": 86
  },
  {
    "name": "Begur",
    "lat": 12.8668,
    "lon": 77.6241,
    "temperature_c": 30.0,
    "humidity_pct": 54,
    "precipitation_mm": 0.0,
    "pm2_5": 24.2,
    "pm10": 35.6,
    "us_aqi": 86
  },
  {
    "name": "Kasavanahalli",
    "lat": 12.9042,
    "lon": 77.6765,
    "temperature_c": 30.1,
    "humidity_pct": 54,
    "precipitation_mm": 0.0,
    "pm2_5": 24.2,
    "pm10": 35.6,
    "us_aqi": 86
  },
  {
    "name": "Haralur",
    "lat": 12.9173,
    "lon": 77.683,
    "temperature_c": 30.3,
    "humidity_pct": 54,
    "precipitation_mm": 0.0,
    "pm2_5": 24.2,
    "pm10": 35.6,
    "us_aqi": 86
  },
  {
    "name": "RR Nagar",
    "lat": 12.9235,
    "lon": 77.5149,
    "temperature_c": 30.7,
    "humidity_pct": 54,
    "precipitation_mm": 0.0,
    "pm2_5": 24.2,
    "pm10": 35.6,
    "us_aqi": 86
  },
  {
    "name": "Mathikere",
    "lat": 13.028,
    "lon": 77.563,
    "temperature_c": 29.5,
    "humidity_pct": 54,
    "precipitation_mm": 0.0,
    "pm2_5": 26.9,
    "pm10": 36.8,
    "us_aqi": 86
  },
  {
    "name": "Bhattarahalli",
    "lat": 12.901,
    "lon": 77.498,
    "temperature_c": 30.5,
    "humidity_pct": 54,
    "precipitation_mm": 0.0,
    "pm2_5": 24.2,
    "pm10": 35.6,
    "us_aqi": 86
  },
  {
    "name": "Basaveshwara Nagar",
    "lat": 13.006,
    "lon": 77.535,
    "temperature_c": 30.1,
    "humidity_pct": 55,
    "precipitation_mm": 0.0,
    "pm2_5": 26.9,
    "pm10": 36.8,
    "us_aqi": 86
  },
  {
    "name": "Akshayanagar",
    "lat": 12.8685,
    "lon": 77.624,
    "temperature_c": 30.0,
    "humidity_pct": 54,
    "precipitation_mm": 0.0,
    "pm2_5": 24.2,
    "pm10": 35.6,
    "us_aqi": 86
  },
  {
    "name": "Hongasandra",
    "lat": 12.8972,
    "lon": 77.6132,
    "temperature_c": 30.2,
    "humidity_pct": 54,
    "precipitation_mm": 0.0,
    "pm2_5": 24.2,
    "pm10": 35.6,
    "us_aqi": 86
  },
  {
    "name": "Raghuvanahalli",
    "lat": 12.879,
    "lon": 77.5485,
    "temperature_c": 30.3,
    "humidity_pct": 54,
    "precipitation_mm": 0.0,
    "pm2_5": 24.2,
    "pm10": 35.6,
    "us_aqi": 86
  },
  {
    "name": "Singasandra",
    "lat": 12.8938,
    "lon": 77.6299,
    "temperature_c": 30.2,
    "humidity_pct": 54,
    "precipitation_mm": 0.0,
    "pm2_5": 24.2,
    "pm10": 35.6,
    "us_aqi": 86
  },
  {
    "name": "MG Road",
    "lat": 12.9753,
    "lon": 77.6076,
    "temperature_c": 29.6,
    "humidity_pct": 54,
    "precipitation_mm": 0.0,
    "pm2_5": 24.2,
    "pm10": 35.6,
    "us_aqi": 86
  },
  {
    "name": "Ulsoor",
    "lat": 12.9839,
    "lon": 77.628,
    "temperature_c": 29.7,
    "humidity_pct": 54,
    "precipitation_mm": 0.0,
    "pm2_5": 24.2,
    "pm10": 35.6,
    "us_aqi": 86
  },
  {
    "name": "Vasanth Nagar",
    "lat": 12.9972,
    "lon": 77.5932,
    "temperature_c": 29.5,
    "humidity_pct": 54,
    "precipitation_mm": 0.0,
    "pm2_5": 24.2,
    "pm10": 35.6,
    "us_aqi": 86
  },
  {
    "name": "Victoria Layout",
    "lat": 12.9677,
    "lon": 77.6176,
    "temperature_c": 29.6,
    "humidity_pct": 54,
    "precipitation_mm": 0.0,
    "pm2_5": 24.2,
    "pm10": 35.6,
    "us_aqi": 86
  },
  {
    "name": "Horamavu",
    "lat": 13.0055,
    "lon": 77.6648,
    "temperature_c": 29.7,
    "humidity_pct": 54,
    "precipitation_mm": 0.0,
    "pm2_5": 26.9,
    "pm10": 36.8,
    "us_aqi": 86
  },
  {
    "name": "Kadugodi",
    "lat": 13.0016,
    "lon": 77.758,
    "temperature_c": 29.7,
    "humidity_pct": 53,
    "precipitation_mm": 0.0,
    "pm2_5": 26.9,
    "pm10": 36.8,
    "us_aqi": 86
  },
  {
    "name": "Dommasandra",
    "lat": 12.8616,
    "lon": 77.7433,
    "temperature_c": 29.6,
    "humidity_pct": 54,
    "precipitation_mm": 0.0,
    "pm2_5": 24.2,
    "pm10": 35.6,
    "us_aqi": 86
  },
  {
    "name": "Devarabeesanahalli",
    "lat": 12.9705,
    "lon": 77.707,
    "temperature_c": 29.5,
    "humidity_pct": 53,
    "precipitation_mm": 0.0,
    "pm2_5": 24.2,
    "pm10": 35.6,
    "us_aqi": 86
  },
  {
    "name": "Garudacharpalya",
    "lat": 12.9848,
    "lon": 77.6836,
    "temperature_c": 29.7,
    "humidity_pct": 54,
    "precipitation_mm": 0.0,
    "pm2_5": 24.2,
    "pm10": 35.6,
    "us_aqi": 86
  }
]