[
  {
    "name": "Indiranagar",
    "lat": 12.9784,
    "lon": 77.6408,
    "temperature_c": 31.8,
    "humidity_pct": 48,
    "precipitation_mm": 0.0,
    "pm2_5": 25.2,
    "pm10": 30.0,
    "us_aqi": 78
  },
  {
    "name": "Koramangala",
    "lat": 12.9352,
    "lon": 77.6245,
    "temperature_c": 31.9,
    "humidity_pct": 51,
    "precipitation_mm": 0.0,
    "pm2_5": 25.2,
    "pm10": 30.0,
    "us_aqi": 78
  },
  {
    "name": "Whitefield",
    "lat": 12.9742,
    "lon": 77.7424,
    "temperature_c": 31.9,
    "humidity_pct": 45,
    "precipitation_mm": 0.0,
    "pm2_5": 25.2,
    "pm10": 30.0,
    "us_aqi": 78
  },
  {
    "name": "Marathahalli",
    "lat": 12.9591,
    "lon": 77.6974,
    "temperature_c": 31.9,
    "humidity_pct": 45,
    "precipitation_mm": 0.0,
    "pm2_5": 25.2,
    "pm10": 30.0,
    "us_aqi": 78
  },
  {
    "name": "BTM Layout",
    "lat": 12.9166,
    "lon": 77.6101,
    "temperature_c": 31.8,
    "humidity_pct": 51,
    "precipitation_mm": 0.0,
    "pm2_5": 25.2,
    "pm10": 30.0,
    "us_aqi": 78
  },
  {
    "name": "Yelahanka",
    "lat": 13.1005,
    "lon": 77.5963,
    "temperature_c": 33.1,
    "humidity_pct": 41,
    "precipitation_mm": 0.0,
    "pm2_5": 28.8,
    "pm10": 34.6,
    "us_aqi": 79
  },
  {
    "name": "Electronic City",
    "lat": 12.8468,
    "lon": 77.668,
    "temperature_c": 31.7,
    "humidity_pct": 51,
    "precipitation_mm": 0.0,
    "pm2_5": 25.2,
    "pm10": 30.0,
    "us_aqi": 78
  },
  {
    "name": "Dollars Colony",
    "lat": 13.042,
    "lon": 77.591,
    "temperature_c": 31.8,
    "humidity_pct": 48,
    "precipitation_mm": 0.0,
    "pm2_5": 28.8,
    "pm10": 34.6,
    "us_aqi": 79
  },
  {
    "name": "Cunningham Road",
    "lat": 12.9833,
    "lon": 77.5933,
    "temperature_c": 31.6,
    "humidity_pct": 48,
    "precipitation_mm": 0.0,
    "pm2_5": 25.2,
    "pm10": 30.0,
    "us_aqi": 78
  },
  {
    "name": "KR Puram",
    "lat": 13.0067,
    "lon": 77.6928,
    "temperature_c": 31.8,
    "humidity_pct": 45,
    "precipitation_mm": 0.0,
    "pm2_5": 28.8,
    "pm10": 34.6,
    "us_aqi": 79
  },
  {
    "name": "Mahadevapura",
    "lat": 12.994,
    "lon": 77.7127,
    "temperature_c": 31.8,
    "humidity_pct": 45,
    "precipitation_mm": 0.0,
    "pm2_5": 25.2,
    "pm10": 30.0,
    "us_aqi": 78
  },
  {
    "name": "Yeshwantpur",
    "lat": 13.0247,
    "lon": 77.5479,
    "temperature_c": 32.5,
    "humidity_pct": 44,
    "precipitation_mm": 0.0,
    "pm2_5": 28.8,
    "pm10": 34.6,
    "us_aqi": 79
  },
  {
    "name": "Peenya",
    "lat": 13.029,
    "lon": 77.515,
    "temperature_c": 32.5,
    "humidity_pct": 44,
    "precipitation_mm": 0.0,
    "pm2_5": 28.8,
    "pm10": 34.6,
    "us_aqi": 79
  },
  {
    "name": "Nagarbhavi",
    "lat": 12.9625,
    "lon": 77.514,
    "temperature_c": 33.0,
    "humidity_pct": 44,
    "precipitation_mm": 0.0,
    "pm2_5": 25.2,
    "pm10": 30.0,
    "us_aqi": 78
  },
  {
    "name": "Kengeri",
    "lat": 12.9143,
    "lon": 77.4829,
    "temperature_c": 32.9,
    "humidity_pct": 47,
    "precipitation_mm": 0.0,
    "pm2_5": 25.2,
    "pm10": 30.0,
    "us_aqi": 78
  },
  {
    "name": "Kasavanahalli",
    "lat": 12.9042,
    "lon": 77.6765,
    "temperature_c": 32.4,
    "humidity_pct": 47,
    "precipitation_mm": 0.0,
    "pm2_5": 25.2,
    "pm10": 30.0,
    "us_aqi": 78
  },
  {
    "name": "Dasarahalli",
    "lat": 13.048,
    "lon": 77.517,
    "temperature_c": 32.5,
    "humidity_pct": 44,
    "precipitation_mm": 0.0,
    "pm2_5": 28.8,
    "pm10": 34.6,
    "us_aqi": 79
  },
  {
    "name": "Mahalakshmi Layout",
    "lat": 13.018,
    "lon": 77.548,
    "temperature_c": 32.5,
    "humidity_pct": 44,
    "precipitation_mm": 0.0,
    "pm2_5": 28.8,
    "pm10": 34.6,
    "us_aqi": 79
  },
  {
    "name": "Nandini Layout",
    "lat": 13.008,
    "lon": 77.532,
    "temperature_c": 32.7,
    "humidity_pct": 44,
    "precipitation_mm": 0.0,
    "pm2_5": 28.8,
    "pm10": 34.6,
    "us_aqi": 79
  },
  {
    "name": "Kamakshipalya",
    "lat": 12.982,
    "lon": 77.538,
    "temperature_c": 32.6,
    "humidity_pct": 44,
    "precipitation_mm": 0.0,
    "pm2_5": 25.2,
    "pm10": 30.0,
    "us_aqi": 78
  },
  {
    "name": "Girinagar",
    "lat": 12.938,
    "lon": 77.549,
    "temperature_c": 32.7,
    "humidity_pct": 44,
    "precipitation_mm": 0.0,
    "pm2_5": 25.2,
    "pm10": 30.0,
    "us_aqi": 78
  },
  {
    "name": "Hegganahalli",
    "lat": 12.986,
    "lon": 77.518,
    "temperature_c": 32.8,
    "humidity_pct": 44,
    "precipitation_mm": 0.0,
    "pm2_5": 25.2,
    "pm10": 30.0,
    "us_aqi": 78
  },
  {
    "name": "Vasanthapura",
    "lat": 12.9042,
    "lon": 77.5193,
    "temperature_c": 32.7,
    "humidity_pct": 47,
    "precipitation_mm": 0.0,
    "pm2_5": 25.2,
    "pm10": 30.0,
    "us_aqi": 78
  },
  {
    "name": "Konanakunte",
    "lat": 12.8936,
    "lon": 77.5546,
    "temperature_c": 32.4,
    "humidity_pct": 47,
    "precipitation_mm": 0.0,
    "pm2_5": 25.2,
    "pm10": 30.0,
    "us_aqi": 78
  },
  {
    "name": "Talaghattapura",
    "lat": 12.8677,
    "lon": 77.5274,
    "temperature_c": 32.3,
    "humidity_pct": 47,
    "precipitation_mm": 0.0,
    "pm2_5": 25.2,
    "pm10": 30.0,
    "us_aqi": 78
  },
  {
    "name": "Sarakki",
    "lat": 12.9154,
    "lon": 77.5657,
    "temperature_c": 32.4,
    "humidity_pct": 47,
    "precipitation_mm": 0.0,
    "pm2_5": 25.2,
    "pm10": 30.0,
    "us_aqi": 78
  },
  {
    "name": "Chandapura",
    "lat": 12.8278,
    "lon": 77.6531,
    "temperature_c": 32.3,
    "humidity_pct": 47,
    "precipitation_mm": 0.0,
    "pm2_5": 25.2,
    "pm10": 30.0,
    "us_aqi": 78
  },
  {
    "name": "MG Road",
    "lat": 12.9753,
    "lon": 77.6076,
    "temperature_c": 32.2,
    "humidity_pct": 45,
    "precipitation_mm": 0.0,
    "pm2_5": 25.2,
    "pm10": 30.0,
    "us_aqi": 78
  },
  {
    "name": "Richmond Town",
    "lat": 12.96,
    "lon": 77.599,
    "temperature_c": 32.3,
    "humidity_pct": 45,
    "precipitation_mm": 0.0,
    "pm2_5": 25.2,
    "pm10": 30.0,
    "us_aqi": 78
  },
  {
    "name": "Langford Town",
    "lat": 12.9545,
    "lon": 77.5968,
    "temperature_c": 32.4,
    "humidity_pct": 45,
    "precipitation_mm": 0.0,
    "pm2_5": 25.2,
    "pm10": 30.0,
    "us_aqi": 78
  },
  {
    "name": "Hoodi",
    "lat": 13.0002,
    "lon": 77.7224,
    "temperature_c": 32.4,
    "humidity_pct": 43,
    "precipitation_mm": 0.0,
    "pm2_5": 28.8,
    "pm10": 34.6,
    "us_aqi": 79
  },
  {
    "name": "Kundalahalli",
    "lat": 12.9718,
    "lon": 77.7157,
    "temperature_c": 32.2,
    "humidity_pct": 43,
    "precipitation_mm": 0.0,
    "pm2_5": 25.2,
    "pm10": 30.0,
    "us_aqi": 78
  },
  {
    "name": "Kadugodi",
    "lat": 13.0016,
    "lon": 77.758,
    "temperature_c": 32.4,
    "humidity_pct": 43,
    "precipitation_mm": 0.0,
    "pm2_5": 28.8,
    "pm10": 34.6,
    "us_aqi": 79
  },
  {
    "name": "Panathur",
    "lat": 12.9319,
    "lon": 77.6865,
    "temperature_c": 32.6,
    "humidity_pct": 47,
    "precipitation_mm": 0.0,
    "pm2_5": 25.2,
    "pm10": 30.0,
    "us_aqi": 78
  }
]