[
  {
    "name": "Indiranagar",
    "lat": 12.9784,
    "lon": 77.6408,
    "temperature_c": 30.6,
    "humidity_pct": 52,
    "precipitation_mm": 0.0,
    "pm2_5": 37.7,
    "pm10": 46.6,
    "us_aqi": 98
  },
  {
    "name": "Koramangala",
    "lat": 12.9352,
    "lon": 77.6245,
    "temperature_c": 30.6,
    "humidity_pct": 55,
    "precipitation_mm": 0.0,
    "pm2_5": 37.7,
    "pm10": 46.6,
    "us_aqi": 98
  },
  {
    "name": "Whitefield",
    "lat": 12.9742,
    "lon": 77.7424,
    "temperature_c": 31.0,
    "humidity_pct": 46,
    "precipitation_mm": 0.0,
    "pm2_5": 37.7,
    "pm10": 46.6,
    "us_aqi": 98
  },
  {
    "name": "BTM Layout",
    "lat": 12.9166,
    "lon": 77.6101,
    "temperature_c": 30.5,
    "humidity_pct": 55,
    "precipitation_mm": 0.0,
    "pm2_5": 37.7,
    "pm10": 46.6,
    "us_aqi": 98
  },
  {
    "name": "Yelahanka",
    "lat": 13.1005,
    "lon": 77.5963,
    "temperature_c": 32.1,
    "humidity_pct": 41,
    "precipitation_mm": 0.0,
    "pm2_5": 38.0,
    "pm10": 48.3,
    "us_aqi": 95
  },
  {
    "name": "Electronic City",
    "lat": 12.8468,
    "lon": 77.668,
    "temperature_c": 30.3,
    "humidity_pct": 55,
    "precipitation_mm": 0.0,
    "pm2_5": 37.7,
    "pm10": 46.6,
    "us_aqi": 98
  },
  {
    "name": "Cunningham Road",
    "lat": 12.9833,
    "lon": 77.5933,
    "temperature_c": 30.4,
    "humidity_pct": 52,
    "precipitation_mm": 0.0,
    "pm2_5": 37.7,
    "pm10": 46.6,
    "us_aqi": 98
  },
  {
    "name": "KR Puram",
    "lat": 13.0067,
    "lon": 77.6928,
    "temperature_c": 30.9,
    "humidity_pct": 46,
    "precipitation_mm": 0.0,
    "pm2_5": 38.0,
    "pm10": 48.3,
    "us_aqi": 95
  },
  {
    "name": "Mahadevapura",
    "lat": 12.994,
    "lon": 77.7127,
    "temperature_c": 30.9,
    "humidity_pct": 46,
    "precipitation_mm": 0.0,
    "pm2_5": 37.7,
    "pm10": 46.6,
    "us_aqi": 98
  },
  {
    "name": "Peenya",
    "lat": 13.029,
    "lon": 77.515,
    "temperature_c": 30.2,
    "humidity_pct": 52,
    "precipitation_mm": 0.0,
    "pm2_5": 38.0,
    "pm10": 48.3,
    "us_aqi": 95
  },
  {
    "name": "Nagarbhavi",
    "lat": 12.9625,
    "lon": 77.514,
    "temperature_c": 30.7,
    "humidity_pct": 52,
    "precipitation_mm": 0.0,
    "pm2_5": 37.7,
    "pm10": 46.6,
    "us_aqi": 98
  },
  {
    "name": "Kengeri",
    "lat": 12.9143,
    "lon": 77.4829,
    "temperature_c": 30.8,
    "humidity_pct": 56,
    "precipitation_mm": 0.0,
    "pm2_5": 37.7,
    "pm10": 46.6,
    "us_aqi": 98
  },
  {
    "name": "Jakkur",
    "lat": 13.0742,
    "lon": 77.601,
    "temperature_c": 32.1,
    "humidity_pct": 41,
    "precipitation_mm": 0.0,
    "pm2_5": 38.0,
    "pm10": 48.3,
    "us_aqi": 95
  },
  {
    "name": "Haralur",
    "lat": 12.9173,
    "lon": 77.683,
    "temperature_c": 30.7,
    "humidity_pct": 55,
    "precipitation_mm": 0.0,
    "pm2_5": 37.7,
    "pm10": 46.6,
    "us_aqi": 98
  },
  {
    "name": "Nandini Layout",
    "lat": 13.008,
    "lon": 77.532,
    "temperature_c": 31.0,
    "humidity_pct": 50,
    "precipitation_mm": 0.0,
    "pm2_5": 38.0,
    "pm10": 48.3,
    "us_aqi": 95
  },
  {
    "name": "Kamakshipalya",
    "lat": 12.982,
    "lon": 77.538,
    "temperature_c": 30.9,
    "humidity_pct": 50,
    "precipitation_mm": 0.0,
    "pm2_5": 37.7,
    "pm10": 46.6,
    "us_aqi": 98
  },
  {
    "name": "Chandra Layout",
    "lat": 12.976,
    "lon": 77.527,
    "temperature_c": 31.1,
    "humidity_pct": 50,
    "precipitation_mm": 0.0,
    "pm2_5": 37.7,
    "pm10": 46.6,
    "us_aqi": 98
  },
  {
    "name": "BEL Layout",
    "lat": 13.028,
    "lon": 77.539,
    "temperature_c": 30.8,
    "humidity_pct": 50,
    "precipitation_mm": 0.0,
    "pm2_5": 38.0,
    "pm10": 48.3,
    "us_aqi": 95
  },
  {
    "name": "Hulimavu",
    "lat": 12.8741,
    "lon": 77.6052,
    "temperature_c": 31.1,
    "humidity_pct": 53,
    "precipitation_mm": 0.0,
    "pm2_5": 37.7,
    "pm10": 46.6,
    "us_aqi": 98
  },
  {
    "name": "Gottigere",
    "lat": 12.854,
    "lon": 77.587,
    "temperature_c": 30.9,
    "humidity_pct": 53,
    "precipitation_mm": 0.0,
    "pm2_5": 37.7,
    "pm10": 46.6,
    "us_aqi": 98
  },
  {
    "name": "Akshayanagar",
    "lat": 12.8685,
    "lon": 77.624,
    "temperature_c": 31.0,
    "humidity_pct": 53,
    "precipitation_mm": 0.0,
    "pm2_5": 37.7,
    "pm10": 46.6,
    "us_aqi": 98
  },
  {
    "name": "Sarakki",
    "lat": 12.9154,
    "lon": 77.5657,
    "temperature_c": 31.1,
    "humidity_pct": 53,
    "precipitation_mm": 0.0,
    "pm2_5": 37.7,
    "pm10": 46.6,
    "us_aqi": 98
  },
  {
    "name": "Puttenahalli",
    "lat": 12.899,
    "lon": 77.5707,
    "temperature_c": 31.0,
    "humidity_pct": 53,
    "precipitation_mm": 0.0,
    "pm2_5": 37.7,
    "pm10": 46.6,
    "us_aqi": 98
  },
  {
    "name": "Chikkalasandra",
    "lat": 12.9135,
    "lon": 77.5552,
    "temperature_c": 30.8,
    "humidity_pct": 53,
    "precipitation_mm": 0.0,
    "pm2_5": 37.7,
    "pm10": 46.6,
    "us_aqi": 98
  },
  {
    "name": "CV Raman Nagar",
    "lat": 12.9913,
    "lon": 77.6595,
    "temperature_c": 31.1,
    "humidity_pct": 50,
    "precipitation_mm": 0.0,
    "pm2_5": 37.7,
    "pm10": 46.6,
    "us_aqi": 98
  },
  {
    "name": "Hoodi",
    "lat": 13.0002,
    "lon": 77.7224,
    "temperature_c": 31.5,
    "humidity_pct": 44,
    "precipitation_mm": 0.0,
    "pm2_5": 38.0,
    "pm10": 48.3,
    "us_aqi": 95
  },
  {
    "name": "Kundalahalli",
    "lat": 12.9718,
    "lon": 77.7157,
    "temperature_c": 31.4,
    "humidity_pct": 44,
    "precipitation_mm": 0.0,
    "pm2_5": 37.7,
    "pm10": 46.6,
    "us_aqi": 98
  },
  {
    "name": "Kadugodi",
    "lat": 13.0016,
    "lon": 77.758,
    "temperature_c": 31.6,
    "humidity_pct": 44,
    "precipitation_mm": 0.0,
    "pm2_5": 38.0,
    "pm10": 48.3,
    "us_aqi": 95
  },
  {
    "name": "Hagadur",
    "lat": 12.9757,
    "lon": 77.76,
    "temperature_c": 31.5,
    "humidity_pct": 44,
    "precipitation_mm": 0.0,
    "pm2_5": 37.7,
    "pm10": 46.6,
    "us_aqi": 98
  },
  {
    "name": "Thubarahalli",
    "lat": 12.9626,
    "lon": 77.7198,
    "temperature_c": 31.5,
    "humidity_pct": 44,
    "precipitation_mm": 0.0,
    "pm2_5": 37.7,
    "pm10": 46.6,
    "us_aqi": 98
  }
]