[
  {
    "name": "Indiranagar",
    "lat": 12.9784,
    "lon": 77.6408,
    "temperature_c": 31.6,
    "humidity_pct": 42,
    "precipitation_mm": 0.0,
    "pm2_5": 23.8,
    "pm10": 43.0,
    "us_aqi": 78
  },
  {
    "name": "Koramangala",
    "lat": 12.9352,
    "lon": 77.6245,
    "temperature_c": 32.3,
    "humidity_pct": 41,
    "precipitation_mm": 0.0,
    "pm2_5": 23.8,
    "pm10": 43.0,
    "us_aqi": 78
  },
  {
    "name": "Whitefield",
    "lat": 12.9742,
    "lon": 77.7424,
    "temperature_c": 31.5,
    "humidity_pct": 41,
    "precipitation_mm": 0.0,
    "pm2_5": 23.8,
    "pm10": 43.0,
    "us_aqi": 78
  },
  {
    "name": "BTM Layout",
    "lat": 12.9166,
    "lon": 77.6101,
    "temperature_c": 32.2,
    "humidity_pct": 41,
    "precipitation_mm": 0.0,
    "pm2_5": 23.8,
    "pm10": 43.0,
    "us_aqi": 78
  },
  {
    "name": "Yelahanka",
    "lat": 13.1005,
    "lon": 77.5963,
    "temperature_c": 32.0,
    "humidity_pct": 42,
    "precipitation_mm": 0.0,
    "pm2_5": 26.1,
    "pm10": 46.6,
    "us_aqi": 98
  },
  {
    "name": "Electronic City",
    "lat": 12.8468,
    "lon": 77.668,
    "temperature_c": 32.0,
    "humidity_pct": 41,
    "precipitation_mm": 0.0,
    "pm2_5": 23.8,
    "pm10": 43.0,
    "us_aqi": 78
  },
  {
    "name": "Dollars Colony",
    "lat": 13.042,
    "lon": 77.591,
    "temperature_c": 31.7,
    "humidity_pct": 42,
    "precipitation_mm": 0.0,
    "pm2_5": 26.1,
    "pm10": 46.6,
    "us_aqi": 98
  },
  {
    "name": "Cunningham Road",
    "lat": 12.9833,
    "lon": 77.5933,
    "temperature_c": 31.4,
    "humidity_pct": 42,
    "precipitation_mm": 0.0,
    "pm2_5": 23.8,
    "pm10": 43.0,
    "us_aqi": 78
  },
  {
    "name": "KR Puram",
    "lat": 13.0067,
    "lon": 77.6928,
    "temperature_c": 31.4,
    "humidity_pct": 41,
    "precipitation_mm": 0.0,
    "pm2_5": 26.1,
    "pm10": 46.6,
    "us_aqi": 98
  },
  {
    "name": "Varthur",
    "lat": 12.9388,
    "lon": 77.7472,
    "temperature_c": 31.5,
    "humidity_pct": 41,
    "precipitation_mm": 0.0,
    "pm2_5": 23.8,
    "pm10": 43.0,
    "us_aqi": 78
  },
  {
    "name": "Nagarbhavi",
    "lat": 12.9625,
    "lon": 77.514,
    "temperature_c": 32.1,
    "humidity_pct": 44,
    "precipitation_mm": 0.0,
    "pm2_5": 23.8,
    "pm10": 43.0,
    "us_aqi": 78
  },
  {
    "name": "Kengeri",
    "lat": 12.9143,
    "lon": 77.4829,
    "temperature_c": 32.7,
    "humidity_pct": 41,
    "precipitation_mm": 0.0,
    "pm2_5": 23.8,
    "pm10": 43.0,
    "us_aqi": 78
  },
  {
    "name": "Uttarahalli",
    "lat": 12.8914,
    "lon": 77.5519,
    "temperature_c": 32.1,
    "humidity_pct": 41,
    "precipitation_mm": 0.0,
    "pm2_5": 23.8,
    "pm10": 43.0,
    "us_aqi": 78
  },
  {
    "name": "Doddakannalli",
    "lat": 12.9058,
    "lon": 77.6934,
    "temperature_c": 31.7,
    "humidity_pct": 42,
    "precipitation_mm": 0.0,
    "pm2_5": 23.8,
    "pm10": 43.0,
    "us_aqi": 78
  },
  {
    "name": "Mahalakshmi Layout",
    "lat": 13.018,
    "lon": 77.548,
    "temperature_c": 32.2,
    "humidity_pct": 42,
    "precipitation_mm": 0.0,
    "pm2_5": 26.1,
    "pm10": 46.6,
    "us_aqi": 98
  },
  {
    "name": "Nandini Layout",
    "lat": 13.008,
    "lon": 77.532,
    "temperature_c": 32.4,
    "humidity_pct": 42,
    "precipitation_mm": 0.0,
    "pm2_5": 26.1,
    "pm10": 46.6,
    "us_aqi": 98
  },
  {
    "name": "Kamakshipalya",
    "lat": 12.982,
    "lon": 77.538,
    "temperature_c": 32.3,
    "humidity_pct": 42,
    "precipitation_mm": 0.0,
    "pm2_5": 23.8,
    "pm10": 43.0,
    "us_aqi": 78
  },
  {
    "name": "Arekere",
    "lat": 12.8853,
    "lon": 77.6096,
    "temperature_c": 32.7,
    "humidity_pct": 39,
    "precipitation_mm": 0.0,
    "pm2_5": 23.8,
    "pm10": 43.0,
    "us_aqi": 78
  },
  {
    "name": "Hulimavu",
    "lat": 12.8741,
    "lon": 77.6052,
    "temperature_c": 32.7,
    "humidity_pct": 39,
    "precipitation_mm": 0.0,
    "pm2_5": 23.8,
    "pm10": 43.0,
    "us_aqi": 78
  },
  {
    "name": "Gottigere",
    "lat": 12.854,
    "lon": 77.587,
    "temperature_c": 32.6,
    "humidity_pct": 39,
    "precipitation_mm": 0.0,
    "pm2_5": 23.8,
    "pm10": 43.0,
    "us_aqi": 78
  },
  {
    "name": "Akshayanagar",
    "lat": 12.8685,
    "lon": 77.624,
    "temperature_c": 32.6,
    "humidity_pct": 39,
    "precipitation_mm": 0.0,
    "pm2_5": 23.8,
    "pm10": 43.0,
    "us_aqi": 78
  },
  {
    "name": "Konanakunte",
    "lat": 12.8936,
    "lon": 77.5546,
    "temperature_c": 32.6,
    "humidity_pct": 39,
    "precipitation_mm": 0.0,
    "pm2_5": 23.8,
    "pm10": 43.0,
    "us_aqi": 78
  },
  {
    "name": "Chandapura",
    "lat": 12.8278,
    "lon": 77.6531,
    "temperature_c": 32.6,
    "humidity_pct": 39,
    "precipitation_mm": 0.0,
    "pm2_5": 23.8,
    "pm10": 43.0,
    "us_aqi": 78
  },
  {
    "name": "MG Road",
    "lat": 12.9753,
    "lon": 77.6076,
    "temperature_c": 32.0,
    "humidity_pct": 40,
    "precipitation_mm": 0.0,
    "pm2_5": 23.8,
    "pm10": 43.0,
    "us_aqi": 78
  },
  {
    "name": "Victoria Layout",
    "lat": 12.9677,
    "lon": 77.6176,
    "temperature_c": 32.1,
    "humidity_pct": 40,
    "precipitation_mm": 0.0,
    "pm2_5": 23.8,
    "pm10": 43.0,
    "us_aqi": 78
  },
  {
    "name": "Hoodi",
    "lat": 13.0002,
    "lon": 77.7224,
    "temperature_c": 32.0,
    "humidity_pct": 40,
    "precipitation_mm": 0.0,
    "pm2_5": 26.1,
    "pm10": 46.6,
    "us_aqi": 98
  },
  {
    "name": "Kundalahalli",
    "lat": 12.9718,
    "lon": 77.7157,
    "temperature_c": 31.8,
    "humidity_pct": 40,
    "precipitation_mm": 0.0,
    "pm2_5": 23.8,
    "pm10": 43.0,
    "us_aqi": 78
  },
  {
    "name": "Kadugodi",
    "lat": 13.0016,
    "lon": 77.758,
    "temperature_c": 32.0,
    "humidity_pct": 40,
    "precipitation_mm": 0.0,
    "pm2_5": 26.1,
    "pm10": 46.6,
    "us_aqi": 98
  },
  {
    "name": "Carmelaram",
    "lat": 12.8904,
    "lon": 77.7098,
    "temperature_c": 31.6,
    "humidity_pct": 42,
    "precipitation_mm": 0.0,
    "pm2_5": 23.8,
    "pm10": 43.0,
    "us_aqi": 78
  },
  {
    "name": "Dommasandra",
    "lat": 12.8616,
    "lon": 77.7433,
    "temperature_c": 31.7,
    "humidity_pct": 42,
    "precipitation_mm": 0.0,
    "pm2_5": 23.8,
    "pm10": 43.0,
    "us_aqi": 78
  }
]