[
  {
    "name": "Indiranagar",
    "lat": 12.9784,
    "lon": 77.6408,
    "temperature_c": 27.1,
    "humidity_pct": 67,
    "precipitation_mm": 0.1,
    "pm2_5": 13.2,
    "pm10": 28.9,
    "us_aqi": 42
  },
  {
    "name": "Koramangala",
    "lat": 12.9352,
    "lon": 77.6245,
    "temperature_c": 27.1,
    "humidity_pct": 67,
    "precipitation_mm": 0.1,
    "pm2_5": 13.2,
    "pm10": 28.9,
    "us_aqi": 42
  },
  {
    "name": "Banashankari",
    "lat": 12.9255,
    "lon": 77.5468,
    "temperature_c": 25.8,
    "humidity_pct": 74,
    "precipitation_mm": 0.1,
    "pm2_5": 13.2,
    "pm10": 28.9,
    "us_aqi": 42
  },
  {
    "name": "Rajajinagar",
    "lat": 12.9922,
    "lon": 77.5555,
    "temperature_c": 26.1,
    "humidity_pct": 72,
    "precipitation_mm": 0.2,
    "pm2_5": 13.2,
    "pm10": 28.9,
    "us_aqi": 42
  },
  {
    "name": "Basavanagudi",
    "lat": 12.9416,
    "lon": 77.5752,
    "temperature_c": 26.1,
    "humidity_pct": 72,
    "precipitation_mm": 0.2,
    "pm2_5": 13.2,
    "pm10": 28.9,
    "us_aqi": 42
  },
  {
    "name": "Marathahalli",
    "lat": 12.9591,
    "lon": 77.6974,
    "temperature_c": 27.8,
    "humidity_pct": 63,
    "precipitation_mm": 0.0,
    "pm2_5": 13.2,
    "pm10": 28.9,
    "us_aqi": 42
  },
  {
    "name": "Yelahanka",
    "lat": 13.1005,
    "lon": 77.5963,
    "temperature_c": 28.4,
    "humidity_pct": 59,
    "precipitation_mm": 0.0,
    "pm2_5": 13.2,
    "pm10": 29.4,
    "us_aqi": 48
  },
  {
    "name": "Electronic City",
    "lat": 12.8468,
    "lon": 77.668,
    "temperature_c": 26.1,
    "humidity_pct": 71,
    "precipitation_mm": 0.1,
    "pm2_5": 13.2,
    "pm10": 28.9,
    "us_aqi": 42
  },
  {
    "name": "Bellandur",
    "lat": 12.9257,
    "lon": 77.6762,
    "temperature_c": 26.3,
    "humidity_pct": 70,
    "precipitation_mm": 0.1,
    "pm2_5": 13.2,
    "pm10": 28.9,
    "us_aqi": 42
  },
  {
    "name": "Bannerghatta Road",
    "lat": 12.8933,
    "lon": 77.5975,
    "temperature_c": 25.8,
    "humidity_pct": 74,
    "precipitation_mm": 0.1,
    "pm2_5": 13.2,
    "pm10": 28.9,
    "us_aqi": 42
  },
  {
    "name": "Vijayanagar",
    "lat": 12.9718,
    "lon": 77.5348,
    "temperature_c": 26.1,
    "humidity_pct": 72,
    "precipitation_mm": 0.2,
    "pm2_5": 13.2,
    "pm10": 28.9,
    "us_aqi": 42
  },
  {
    "name": "Cox Town",
    "lat": 12.993,
    "lon": 77.619,
    "temperature_c": 27.0,
    "humidity_pct": 68,
    "precipitation_mm": 0.1,
    "pm2_5": 13.2,
    "pm10": 28.9,
    "us_aqi": 42
  },
  {
    "name": "Dollars Colony",
    "lat": 13.042,
    "lon": 77.591,
    "temperature_c": 27.7,
    "humidity_pct": 62,
    "precipitation_mm": 0.0,
    "pm2_5": 13.2,
    "pm10": 29.4,
    "us_aqi": 48
  },
  {
    "name": "Cunningham Road",
    "lat": 12.9833,
    "lon": 77.5933,
    "temperature_c": 26.3,
    "humidity_pct": 72,
    "precipitation_mm": 0.2,
    "pm2_5": 13.2,
    "pm10": 28.9,
    "us_aqi": 42
  },
  {
    "name": "KR Puram",
    "lat": 13.0067,
    "lon": 77.6928,
    "temperature_c": 28.1,
    "humidity_pct": 61,
    "precipitation_mm": 0.0,
    "pm2_5": 13.2,
    "pm10": 29.4,
    "us_aqi": 48
  },
  {
    "name": "Nagavara",
    "lat": 13.0494,
    "lon": 77.6236,
    "temperature_c": 27.8,
    "humidity_pct": 62,
    "precipitation_mm": 0.0,
    "pm2_5": 13.2,
    "pm10": 29.4,
    "us_aqi": 48
  },
  {
    "name": "Domlur",
    "lat": 12.9621,
    "lon": 77.6384,
    "temperature_c": 27.0,
    "humidity_pct": 68,
    "precipitation_mm": 0.1,
    "pm2_5": 13.2,
    "pm10": 28.9,
    "us_aqi": 42
  },
  {
    "name": "Ramamurthy Nagar",
    "lat": 13.0142,
    "lon": 77.6608,
    "temperature_c": 27.8,
    "humidity_pct": 62,
    "precipitation_mm": 0.0,
    "pm2_5": 13.2,
    "pm10": 29.4,
    "us_aqi": 48
  },
  {
    "name": "Varthur",
    "lat": 12.9388,
    "lon": 77.7472,
    "temperature_c": 27.7,
    "humidity_pct": 63,
    "precipitation_mm": 0.0,
    "pm2_5": 13.2,
    "pm10": 28.9,
    "us_aqi": 42
  },
  {
    "name": "Shivajinagar",
    "lat": 12.9894,
    "lon": 77.6012,
    "temperature_c": 26.3,
    "humidity_pct": 72,
    "precipitation_mm": 0.2,
    "pm2_5": 13.2,
    "pm10": 28.9,
    "us_aqi": 42
  },
  {
    "name": "Yeshwantpur",
    "lat": 13.0247,
    "lon": 77.5479,
    "temperature_c": 27.7,
    "humidity_pct": 62,
    "precipitation_mm": 0.0,
    "pm2_5": 13.2,
    "pm10": 29.4,
    "us_aqi": 48
  },
  {
    "name": "Peenya",
    "lat": 13.029,
    "lon": 77.515,
    "temperature_c": 27.7,
    "humidity_pct": 62,
    "precipitation_mm": 0.0,
    "pm2_5": 13.2,
    "pm10": 29.4,
    "us_aqi": 48
  },
  {
    "name": "Nagarbhavi",
    "lat": 12.9625,
    "lon": 77.514,
    "temperature_c": 26.2,
    "humidity_pct": 75,
    "precipitation_mm": 0.1,
    "pm2_5": 13.2,
    "pm10": 28.9,
    "us_aqi": 42
  },
  {
    "name": "Kengeri",
    "lat": 12.9143,
    "lon": 77.4829,
    "temperature_c": 25.4,
    "humidity_pct": 84,
    "precipitation_mm": 0.2,
    "pm2_5": 13.2,
    "pm10": 28.9,
    "us_aqi": 42
  },
  {
    "name": "Bommanahalli",
    "lat": 12.8932,
    "lon": 77.6198,
    "temperature_c": 26.3,
    "humidity_pct": 71,
    "precipitation_mm": 0.1,
    "pm2_5": 13.2,
    "pm10": 28.9,
    "us_aqi": 42
  },
  {
    "name": "Begur",
    "lat": 12.8668,
    "lon": 77.6241,
    "temperature_c": 26.3,
    "humidity_pct": 71,
    "precipitation_mm": 0.1,
    "pm2_5": 13.2,
    "pm10": 28.9,
    "us_aqi": 42
  },
  {
    "name": "Jakkur",
    "lat": 13.0742,
    "lon": 77.601,
    "temperature_c": 28.4,
    "humidity_pct": 59,
    "precipitation_mm": 0.0,
    "pm2_5": 13.2,
    "pm10": 29.4,
    "us_aqi": 48
  },
  {
    "name": "Padmanabhanagar",
    "lat": 12.9243,
    "lon": 77.5494,
    "temperature_c": 26.1,
    "humidity_pct": 74,
    "precipitation_mm": 0.1,
    "pm2_5": 13.2,
    "pm10": 28.9,
    "us_aqi": 42
  },
  {
    "name": "Old Madras Road",
    "lat": 13.005,
    "lon": 77.665,
    "temperature_c": 26.9,
    "humidity_pct": 69,
    "precipitation_mm": 0.1,
    "pm2_5": 13.2,
    "pm10": 29.4,
    "us_aqi": 48
  },
  {
    "name": "Doddakannalli",
    "lat": 12.9058,
    "lon": 77.6934,
    "temperature_c": 26.3,
    "humidity_pct": 71,
    "precipitation_mm": 0.1,
    "pm2_5": 13.2,
    "pm10": 28.9,
    "us_aqi": 42
  },
  {
    "name": "Kasavanahalli",
    "lat": 12.9042,
    "lon": 77.6765,
    "temperature_c": 26.3,
    "humidity_pct": 71,
    "precipitation_mm": 0.1,
    "pm2_5": 13.2,
    "pm10": 28.9,
    "us_aqi": 42
  },
  {
    "name": "RR Nagar",
    "lat": 12.9235,
    "lon": 77.5149,
    "temperature_c": 25.8,
    "humidity_pct": 83,
    "precipitation_mm": 0.2,
    "pm2_5": 13.2,
    "pm10": 28.9,
    "us_aqi": 42
  },
  {
    "name": "Jalahalli",
    "lat": 13.0527,
    "lon": 77.543,
    "temperature_c": 27.6,
    "humidity_pct": 63,
    "precipitation_mm": 0.0,
    "pm2_5": 13.2,
    "pm10": 29.4,
    "us_aqi": 48
  },
  {
    "name": "Dasarahalli",
    "lat": 13.048,
    "lon": 77.517,
    "temperature_c": 27.6,
    "humidity_pct": 63,
    "precipitation_mm": 0.0,
    "pm2_5": 13.2,
    "pm10": 29.4,
    "us_aqi": 48
  },
  {
    "name": "Mahalakshmi Layout",
    "lat": 13.018,
    "lon": 77.548,
    "temperature_c": 27.6,
    "humidity_pct": 63,
    "precipitation_mm": 0.0,
    "pm2_5": 13.2,
    "pm10": 29.4,
    "us_aqi": 48
  },
  {
    "name": "Nandini Layout",
    "lat": 13.008,
    "lon": 77.532,
    "temperature_c": 27.6,
    "humidity_pct": 63,
    "precipitation_mm": 0.0,
    "pm2_5": 13.2,
    "pm10": 29.4,
    "us_aqi": 48
  },
  {
    "name": "Kamakshipalya",
    "lat": 12.982,
    "lon": 77.538,
    "temperature_c": 26.5,
    "humidity_pct": 72,
    "precipitation_mm": 0.2,
    "pm2_5": 13.2,
    "pm10": 28.9,
    "us_aqi": 42
  },
  {
    "name": "Herohalli",
    "lat": 13.015,
    "lon": 77.51,
    "temperature_c": 27.6,
    "humidity_pct": 63,
    "precipitation_mm": 0.0,
    "pm2_5": 13.2,
    "pm10": 29.4,
    "us_aqi": 48
  },
  {
    "name": "Mathikere",
    "lat": 13.028,
    "lon": 77.563,
    "temperature_c": 27.6,
    "humidity_pct": 63,
    "precipitation_mm": 0.0,
    "pm2_5": 13.2,
    "pm10": 29.4,
    "us_aqi": 48
  },
  {
    "name": "Bhattarahalli",
    "lat": 12.901,
    "lon": 77.498,
    "temperature_c": 25.8,
    "humidity_pct": 83,
    "precipitation_mm": 0.2,
    "pm2_5": 13.2,
    "pm10": 28.9,
    "us_aqi": 42
  },
  {
    "name": "BEL Layout",
    "lat": 13.028,
    "lon": 77.539,
    "temperature_c": 27.6,
    "humidity_pct": 63,
    "precipitation_mm": 0.0,
    "pm2_5": 13.2,
    "pm10": 29.4,
    "us_aqi": 48
  },
  {
    "name": "Girinagar",
    "lat": 12.938,
    "lon": 77.549,
    "temperature_c": 26.5,
    "humidity_pct": 72,
    "precipitation_mm": 0.2,
    "pm2_5": 13.2,
    "pm10": 28.9,
    "us_aqi": 42
  },
  {
    "name": "Chord Road",
    "lat": 12.995,
    "lon": 77.546,
    "temperature_c": 26.5,
    "humidity_pct": 72,
    "precipitation_mm": 0.2,
    "pm2_5": 13.2,
    "pm10": 28.9,
    "us_aqi": 42
  },
  {
    "name": "Arekere",
    "lat": 12.8853,
    "lon": 77.6096,
    "temperature_c": 26.1,
    "humidity_pct": 74,
    "precipitation_mm": 0.1,
    "pm2_5": 13.2,
    "pm10": 28.9,
    "us_aqi": 42
  },
  {
    "name": "Hulimavu",
    "lat": 12.8741,
    "lon": 77.6052,
    "temperature_c": 26.1,
    "humidity_pct": 74,
    "precipitation_mm": 0.1,
    "pm2_5": 13.2,
    "pm10": 28.9,
    "us_aqi": 42
  },
  {
    "name": "Akshayanagar",
    "lat": 12.8685,
    "lon": 77.624,
    "temperature_c": 26.3,
    "humidity_pct": 71,
    "precipitation_mm": 0.1,
    "pm2_5": 14.1,
    "pm10": 30.3,
    "us_aqi": 42
  },
  {
    "name": "Subramanyapura",
    "lat": 12.9068,
    "lon": 77.5361,
    "temperature_c": 26.2,
    "humidity_pct": 74,
    "precipitation_mm": 0.1,
    "pm2_5": 14.1,
    "pm10": 30.3,
    "us_aqi": 42
  },
  {
    "name": "Vasanthapura",
    "lat": 12.9042,
    "lon": 77.5193,
    "temperature_c": 26.1,
    "humidity_pct": 82,
    "precipitation_mm": 0.2,
    "pm2_5": 14.1,
    "pm10": 30.3,
    "us_aqi": 42
  },
  {
    "name": "Konanakunte",
    "lat": 12.8936,
    "lon": 77.5546,
    "temperature_c": 26.2,
    "humidity_pct": 74,
    "precipitation_mm": 0.1,
    "pm2_5": 14.1,
    "pm10": 30.3,
    "us_aqi": 42
  },
  {
    "name": "Sarakki",
    "lat": 12.9154,
    "lon": 77.5657,
    "temperature_c": 26.2,
    "humidity_pct": 74,
    "precipitation_mm": 0.1,
    "pm2_5": 14.1,
    "pm10": 30.3,
    "us_aqi": 42
  },
  {
    "name": "Puttenahalli",
    "lat": 12.899,
    "lon": 77.5707,
    "temperature_c": 26.2,
    "humidity_pct": 74,
    "precipitation_mm": 0.1,
    "pm2_5": 14.1,
    "pm10": 30.3,
    "us_aqi": 42
  },
  {
    "name": "Chikkalasandra",
    "lat": 12.9135,
    "lon": 77.5552,
    "temperature_c": 26.2,
    "humidity_pct": 74,
    "precipitation_mm": 0.1,
    "pm2_5": 14.1,
    "pm10": 30.3,
    "us_aqi": 42
  },
  {
    "name": "Raghuvanahalli",
    "lat": 12.879,
    "lon": 77.5485,
    "temperature_c": 26.2,
    "humidity_pct": 74,
    "precipitation_mm": 0.1,
    "pm2_5": 14.1,
    "pm10": 30.3,
    "us_aqi": 42
  },
  {
    "name": "Singasandra",
    "lat": 12.8938,
    "lon": 77.6299,
    "temperature_c": 26.3,
    "humidity_pct": 71,
    "precipitation_mm": 0.1,
    "pm2_5": 14.1,
    "pm10": 30.3,
    "us_aqi": 42
  },
  {
    "name": "Chandapura",
    "lat": 12.8278,
    "lon": 77.6531,
    "temperature_c": 26.3,
    "humidity_pct": 71,
    "precipitation_mm": 0.1,
    "pm2_5": 14.1,
    "pm10": 30.3,
    "us_aqi": 42
  },
  {
    "name": "MG Road",
    "lat": 12.9753,
    "lon": 77.6076,
    "temperature_c": 26.8,
    "humidity_pct": 70,
    "precipitation_mm": 0.1,
    "pm2_5": 14.1,
    "pm10": 30.3,
    "us_aqi": 42
  },
  {
    "name": "Richmond Town",
    "lat": 12.96,
    "lon": 77.599,
    "temperature_c": 26.6,
    "humidity_pct": 72,
    "precipitation_mm": 0.2,
    "pm2_5": 14.1,
    "pm10": 30.3,
    "us_aqi": 42
  },
  {
    "name": "Langford Town",
    "lat": 12.9545,
    "lon": 77.5968,
    "temperature_c": 26.6,
    "humidity_pct": 72,
    "precipitation_mm": 0.2,
    "pm2_5": 14.1,
    "pm10": 30.3,
    "us_aqi": 42
  },
  {
    "name": "Vasanth Nagar",
    "lat": 12.9972,
    "lon": 77.5932,
    "temperature_c": 26.6,
    "humidity_pct": 72,
    "precipitation_mm": 0.2,
    "pm2_5": 14.1,
    "pm10": 30.3,
    "us_aqi": 42
  },
  {
    "name": "Victoria Layout",
    "lat": 12.9677,
    "lon": 77.6176,
    "temperature_c": 26.8,
    "humidity_pct": 70,
    "precipitation_mm": 0.1,
    "pm2_5": 14.1,
    "pm10": 30.3,
    "us_aqi": 42
  },
  {
    "name": "Horamavu",
    "lat": 13.0055,
    "lon": 77.6648,
    "temperature_c": 26.8,
    "humidity_pct": 70,
    "precipitation_mm": 0.1,
    "pm2_5": 13.9,
    "pm10": 31.0,
    "us_aqi": 48
  },
  {
    "name": "HAL",
    "lat": 12.9553,
    "lon": 77.6698,
    "temperature_c": 26.8,
    "humidity_pct": 70,
    "precipitation_mm": 0.1,
    "pm2_5": 14.1,
    "pm10": 30.3,
    "us_aqi": 42
  },
  {
    "name": "Kodigehalli",
    "lat": 13.0491,
    "lon": 77.6131,
    "temperature_c": 27.4,
    "humidity_pct": 63,
    "precipitation_mm": 0.0,
    "pm2_5": 13.9,
    "pm10": 31.0,
    "us_aqi": 48
  },
  {
    "name": "Kaggadasapura",
    "lat": 12.9974,
    "lon": 77.6735,
    "temperature_c": 26.8,
    "humidity_pct": 70,
    "precipitation_mm": 0.1,
    "pm2_5": 14.1,
    "pm10": 30.3,
    "us_aqi": 42
  },
  {
    "name": "Hoodi",
    "lat": 13.0002,
    "lon": 77.7224,
    "temperature_c": 27.6,
    "humidity_pct": 64,
    "precipitation_mm": 0.0,
    "pm2_5": 13.9,
    "pm10": 31.0,
    "us_aqi": 48
  },
  {
    "name": "Kundalahalli",
    "lat": 12.9718,
    "lon": 77.7157,
    "temperature_c": 27.7,
    "humidity_pct": 64,
    "precipitation_mm": 0.0,
    "pm2_5": 14.1,
    "pm10": 30.3,
    "us_aqi": 42
  },
  {
    "name": "Kadugodi",
    "lat": 13.0016,
    "lon": 77.758,
    "temperature_c": 27.7,
    "humidity_pct": 64,
    "precipitation_mm": 0.0,
    "pm2_5": 13.9,
    "pm10": 31.0,
    "us_aqi": 48
  },
  {
    "name": "Panathur",
    "lat": 12.9319,
    "lon": 77.6865,
    "temperature_c": 26.4,
    "humidity_pct": 71,
    "precipitation_mm": 0.1,
    "pm2_5": 14.1,
    "pm10": 30.3,
    "us_aqi": 42
  },
  {
    "name": "Munnekolala",
    "lat": 12.9484,
    "lon": 77.71,
    "temperature_c": 27.7,
    "humidity_pct": 64,
    "precipitation_mm": 0.0,
    "pm2_5": 14.1,
    "pm10": 30.3,
    "us_aqi": 42
  },
  {
    "name": "Nallurhalli",
    "lat": 12.954,
    "lon": 77.731,
    "temperature_c": 27.7,
    "humidity_pct": 64,
    "precipitation_mm": 0.0,
    "pm2_5": 14.1,
    "pm10": 30.3,
    "us_aqi": 42
  },
  {
    "name": "Vibhutipura",
    "lat": 12.9655,
    "lon": 77.664,
    "temperature_c": 26.6,
    "humidity_pct": 71,
    "precipitation_mm": 0.3,
    "pm2_5": 14.1,
    "pm10": 30.3,
    "us_aqi": 42
  },
  {
    "name": "Dommasandra",
    "lat": 12.8616,
    "lon": 77.7433,
    "temperature_c": 26.4,
    "humidity_pct": 71,
    "precipitation_mm": 0.1,
    "pm2_5": 14.1,
    "pm10": 30.3,
    "us_aqi": 42
  },
  {
    "name": "Devarabeesanahalli",
    "lat": 12.9705,
    "lon": 77.707,
    "temperature_c": 27.7,
    "humidity_pct": 64,
    "precipitation_mm": 0.0,
    "pm2_5": 14.1,
    "pm10": 30.3,
    "us_aqi": 42
  },
  {
    "name": "Hagadur",
    "lat": 12.9757,
    "lon": 77.76,
    "temperature_c": 27.7,
    "humidity_pct": 64,
    "precipitation_mm": 0.0,
    "pm2_5": 14.1,
    "pm10": 30.3,
    "us_aqi": 42
  },
  {
    "name": "Thubarahalli",
    "lat": 12.9626,
    "lon": 77.7198,
    "temperature_c": 27.7,
    "humidity_pct": 64,
    "precipitation_mm": 0.0,
    "pm2_5": 14.1,
    "pm10": 30.3,
    "us_aqi": 42
  }
]