[
  {
    "name": "Indiranagar",
    "lat": 12.9784,
    "lon": 77.6408,
    "temperature_c": 32.6,
    "humidity_pct": 42,
    "precipitation_mm": 0.0,
    "pm2_5": 28.0,
    "pm10": 36.3,
    "us_aqi": 90
  },
  {
    "name": "Koramangala",
    "lat": 12.9352,
    "lon": 77.6245,
    "temperature_c": 32.5,
    "humidity_pct": 47,
    "precipitation_mm": 0.0,
    "pm2_5": 28.0,
    "pm10": 36.3,
    "us_aqi": 90
  },
  {
    "name": "Whitefield",
    "lat": 12.9742,
    "lon": 77.7424,
    "temperature_c": 33.0,
    "humidity_pct": 36,
    "precipitation_mm": 0.0,
    "pm2_5": 28.0,
    "pm10": 36.3,
    "us_aqi": 90
  },
  {
    "name": "BTM Layout",
    "lat": 12.9166,
    "lon": 77.6101,
    "temperature_c": 32.4,
    "humidity_pct": 47,
    "precipitation_mm": 0.0,
    "pm2_5": 28.0,
    "pm10": 36.3,
    "us_aqi": 90
  },
  {
    "name": "Yelahanka",
    "lat": 13.1005,
    "lon": 77.5963,
    "temperature_c": 34.2,
    "humidity_pct": 31,
    "precipitation_mm": 0.0,
    "pm2_5": 29.7,
    "pm10": 38.6,
    "us_aqi": 88
  },
  {
    "name": "Electronic City",
    "lat": 12.8468,
    "lon": 77.668,
    "temperature_c": 32.3,
    "humidity_pct": 47,
    "precipitation_mm": 0.0,
    "pm2_5": 28.0,
    "pm10": 36.3,
    "us_aqi": 90
  },
  {
    "name": "Dollars Colony",
    "lat": 13.042,
    "lon": 77.591,
    "temperature_c": 32.6,
    "humidity_pct": 42,
    "precipitation_mm": 0.0,
    "pm2_5": 29.7,
    "pm10": 38.6,
    "us_aqi": 88
  },
  {
    "name": "Cunningham Road",
    "lat": 12.9833,
    "lon": 77.5933,
    "temperature_c": 32.4,
    "humidity_pct": 42,
    "precipitation_mm": 0.0,
    "pm2_5": 28.0,
    "pm10": 36.3,
    "us_aqi": 90
  },
  {
    "name": "KR Puram",
    "lat": 13.0067,
    "lon": 77.6928,
    "temperature_c": 33.0,
    "humidity_pct": 36,
    "precipitation_mm": 0.0,
    "pm2_5": 29.7,
    "pm10": 38.6,
    "us_aqi": 88
  },
  {
    "name": "Mahadevapura",
    "lat": 12.994,
    "lon": 77.7127,
    "temperature_c": 32.9,
    "humidity_pct": 36,
    "precipitation_mm": 0.0,
    "pm2_5": 28.0,
    "pm10": 36.3,
    "us_aqi": 90
  },
  {
    "name": "Peenya",
    "lat": 13.029,
    "lon": 77.515,
    "temperature_c": 33.0,
    "humidity_pct": 38,
    "precipitation_mm": 0.0,
    "pm2_5": 29.7,
    "pm10": 38.6,
    "us_aqi": 88
  },
  {
    "name": "Nagarbhavi",
    "lat": 12.9625,
    "lon": 77.514,
    "temperature_c": 33.5,
    "humidity_pct": 38,
    "precipitation_mm": 0.0,
    "pm2_5": 28.0,
    "pm10": 36.3,
    "us_aqi": 90
  },
  {
    "name": "Kengeri",
    "lat": 12.9143,
    "lon": 77.4829,
    "temperature_c": 33.1,
    "humidity_pct": 45,
    "precipitation_mm": 0.0,
    "pm2_5": 28.0,
    "pm10": 36.3,
    "us_aqi": 90
  },
  {
    "name": "Uttarahalli",
    "lat": 12.8914,
    "lon": 77.5519,
    "temperature_c": 32.5,
    "humidity_pct": 45,
    "precipitation_mm": 0.0,
    "pm2_5": 28.0,
    "pm10": 36.3,
    "us_aqi": 90
  },
  {
    "name": "Kasavanahalli",
    "lat": 12.9042,
    "lon": 77.6765,
    "temperature_c": 33.0,
    "humidity_pct": 44,
    "precipitation_mm": 0.0,
    "pm2_5": 28.0,
    "pm10": 36.3,
    "us_aqi": 90
  },
  {
    "name": "Nandini Layout",
    "lat": 13.008,
    "lon": 77.532,
    "temperature_c": 33.2,
    "humidity_pct": 38,
    "precipitation_mm": 0.0,
    "pm2_5": 29.7,
    "pm10": 38.6,
    "us_aqi": 88
  },
  {
    "name": "Kamakshipalya",
    "lat": 12.982,
    "lon": 77.538,
    "temperature_c": 33.1,
    "humidity_pct": 38,
    "precipitation_mm": 0.0,
    "pm2_5": 28.0,
    "pm10": 36.3,
    "us_aqi": 90
  },
  {
    "name": "Chandra Layout",
    "lat": 12.976,
    "lon": 77.527,
    "temperature_c": 33.3,
    "humidity_pct": 38,
    "precipitation_mm": 0.0,
    "pm2_5": 28.0,
    "pm10": 36.3,
    "us_aqi": 90
  },
  {
    "name": "Hegganahalli",
    "lat": 12.986,
    "lon": 77.518,
    "temperature_c": 33.3,
    "humidity_pct": 38,
    "precipitation_mm": 0.0,
    "pm2_5": 28.0,
    "pm10": 36.3,
    "us_aqi": 90
  },
  {
    "name": "Chord Road",
    "lat": 12.995,
    "lon": 77.546,
    "temperature_c": 33.0,
    "humidity_pct": 38,
    "precipitation_mm": 0.0,
    "pm2_5": 28.0,
    "pm10": 36.3,
    "us_aqi": 90
  },
  {
    "name": "Konanakunte",
    "lat": 12.8936,
    "lon": 77.5546,
    "temperature_c": 32.5,
    "humidity_pct": 45,
    "precipitation_mm": 0.0,
    "pm2_5": 28.0,
    "pm10": 36.3,
    "us_aqi": 90
  },
  {
    "name": "Talaghattapura",
    "lat": 12.8677,
    "lon": 77.5274,
    "temperature_c": 32.4,
    "humidity_pct": 45,
    "precipitation_mm": 0.0,
    "pm2_5": 28.0,
    "pm10": 36.3,
    "us_aqi": 90
  },
  {
    "name": "Sarakki",
    "lat": 12.9154,
    "lon": 77.5657,
    "temperature_c": 33.0,
    "humidity_pct": 44,
    "precipitation_mm": 0.0,
    "pm2_5": 28.0,
    "pm10": 36.3,
    "us_aqi": 90
  },
  {
    "name": "Puttenahalli",
    "lat": 12.899,
    "lon": 77.5707,
    "temperature_c": 33.0,
    "humidity_pct": 44,
    "precipitation_mm": 0.0,
    "pm2_5": 28.0,
    "pm10": 36.3,
    "us_aqi": 90
  },
  {
    "name": "Ulsoor",
    "lat": 12.9839,
    "lon": 77.628,
    "temperature_c": 33.1,
    "humidity_pct": 40,
    "precipitation_mm": 0.0,
    "pm2_5": 28.0,
    "pm10": 36.3,
    "us_aqi": 90
  },
  {
    "name": "CV Raman Nagar",
    "lat": 12.9913,
    "lon": 77.6595,
    "temperature_c": 33.1,
    "humidity_pct": 40,
    "precipitation_mm": 0.0,
    "pm2_5": 28.0,
    "pm10": 36.3,
    "us_aqi": 90
  },
  {
    "name": "Horamavu",
    "lat": 13.0055,
    "lon": 77.6648,
    "temperature_c": 33.1,
    "humidity_pct": 40,
    "precipitation_mm": 0.0,
    "pm2_5": 29.7,
    "pm10": 38.6,
    "us_aqi": 88
  },
  {
    "name": "HAL",
    "lat": 12.9553,
    "lon": 77.6698,
    "temperature_c": 33.2,
    "humidity_pct": 40,
    "precipitation_mm": 0.0,
    "pm2_5": 28.0,
    "pm10": 36.3,
    "us_aqi": 90
  },
  {
    "name": "Kodigehalli",
    "lat": 13.0491,
    "lon": 77.6131,
    "temperature_c": 33.2,
    "humidity_pct": 40,
    "precipitation_mm": 0.0,
    "pm2_5": 29.7,
    "pm10": 38.6,
    "us_aqi": 88
  },
  {
    "name": "Kadugodi",
    "lat": 13.0016,
    "lon": 77.758,
    "temperature_c": 33.7,
    "humidity_pct": 33,
    "precipitation_mm": 0.0,
    "pm2_5": 29.7,
    "pm10": 38.6,
    "us_aqi": 88
  },
  {
    "name": "Devarabeesanahalli",
    "lat": 12.9705,
    "lon": 77.707,
    "temperature_c": 33.5,
    "humidity_pct": 33,
    "precipitation_mm": 0.0,
    "pm2_5": 28.0,
    "pm10": 36.3,
    "us_aqi": 90
  },
  {
    "name": "Garudacharpalya",
    "lat": 12.9848,
    "lon": 77.6836,
    "temperature_c": 33.2,
    "humidity_pct": 40,
    "precipitation_mm": 0.0,
    "pm2_5": 28.0,
    "pm10": 36.3,
    "us_aqi": 90
  }
]