[
  {
    "name": "Indiranagar",
    "lat": 12.9784,
    "lon": 77.6408,
    "temperature_c": 28.9,
    "humidity_pct": 32,
    "precipitation_mm": 0.0,
    "pm2_5": 44.5,
    "pm10": 46.1,
    "us_aqi": 164
  },
  {
    "name": "Koramangala",
    "lat": 12.9352,
    "lon": 77.6245,
    "temperature_c": 29.6,
    "humidity_pct": 31,
    "precipitation_mm": 0.0,
    "pm2_5": 44.5,
    "pm10": 46.1,
    "us_aqi": 164
  },
  {
    "name": "Whitefield",
    "lat": 12.9742,
    "lon": 77.7424,
    "temperature_c": 28.8,
    "humidity_pct": 31,
    "precipitation_mm": 0.0,
    "pm2_5": 44.5,
    "pm10": 46.1,
    "us_aqi": 164
  },
  {
    "name": "Jayanagar",
    "lat": 12.9308,
    "lon": 77.5838,
    "temperature_c": 29.3,
    "humidity_pct": 31,
    "precipitation_mm": 0.0,
    "pm2_5": 44.5,
    "pm10": 46.1,
    "us_aqi": 164
  },
  {
    "name": "BTM Layout",
    "lat": 12.9166,
    "lon": 77.6101,
    "temperature_c": 29.2,
    "humidity_pct": 32,
    "precipitation_mm": 0.0,
    "pm2_5": 44.5,
    "pm10": 46.1,
    "us_aqi": 164
  },
  {
    "name": "Yelahanka",
    "lat": 13.1005,
    "lon": 77.5963,
    "temperature_c": 27.8,
    "humidity_pct": 34,
    "precipitation_mm": 0.0,
    "pm2_5": 37.4,
    "pm10": 41.1,
    "us_aqi": 130
  },
  {
    "name": "Electronic City",
    "lat": 12.8468,
    "lon": 77.668,
    "temperature_c": 29.0,
    "humidity_pct": 32,
    "precipitation_mm": 0.0,
    "pm2_5": 44.5,
    "pm10": 46.1,
    "us_aqi": 164
  },
  {
    "name": "Bellandur",
    "lat": 12.9257,
    "lon": 77.6762,
    "temperature_c": 29.3,
    "humidity_pct": 32,
    "precipitation_mm": 0.0,
    "pm2_5": 44.5,
    "pm10": 46.1,
    "us_aqi": 164
  },
  {
    "name": "Cunningham Road",
    "lat": 12.9833,
    "lon": 77.5933,
    "temperature_c": 28.5,
    "humidity_pct": 32,
    "precipitation_mm": 0.0,
    "pm2_5": 44.5,
    "pm10": 46.1,
    "us_aqi": 164
  },
  {
    "name": "KR Puram",
    "lat": 13.0067,
    "lon": 77.6928,
    "temperature_c": 28.5,
    "humidity_pct": 32,
    "precipitation_mm": 0.0,
    "pm2_5": 37.4,
    "pm10": 41.1,
    "us_aqi": 130
  },
  {
    "name": "Mahadevapura",
    "lat": 12.994,
    "lon": 77.7127,
    "temperature_c": 28.4,
    "humidity_pct": 32,
    "precipitation_mm": 0.0,
    "pm2_5": 44.5,
    "pm10": 46.1,
    "us_aqi": 164
  },
  {
    "name": "Hennur",
    "lat": 13.042,
    "lon": 77.638,
    "temperature_c": 28.8,
    "humidity_pct": 32,
    "precipitation_mm": 0.0,
    "pm2_5": 37.4,
    "pm10": 41.1,
    "us_aqi": 130
  },
  {
    "name": "Brookefield",
    "lat": 12.9783,
    "lon": 77.7277,
    "temperature_c": 28.4,
    "humidity_pct": 32,
    "precipitation_mm": 0.0,
    "pm2_5": 44.5,
    "pm10": 46.1,
    "us_aqi": 164
  },
  {
    "name": "Nagarbhavi",
    "lat": 12.9625,
    "lon": 77.514,
    "temperature_c": 28.2,
    "humidity_pct": 32,
    "precipitation_mm": 0.0,
    "pm2_5": 44.5,
    "pm10": 46.1,
    "us_aqi": 164
  },
  {
    "name": "Begur",
    "lat": 12.8668,
    "lon": 77.6241,
    "temperature_c": 29.1,
    "humidity_pct": 32,
    "precipitation_mm": 0.0,
    "pm2_5": 44.5,
    "pm10": 46.1,
    "us_aqi": 164
  },
  {
    "name": "RR Nagar",
    "lat": 12.9235,
    "lon": 77.5149,
    "temperature_c": 29.8,
    "humidity_pct": 32,
    "precipitation_mm": 0.0,
    "pm2_5": 44.5,
    "pm10": 46.1,
    "us_aqi": 164
  },
  {
    "name": "Jalahalli",
    "lat": 13.0527,
    "lon": 77.543,
    "temperature_c": 27.6,
    "humidity_pct": 32,
    "precipitation_mm": 0.0,
    "pm2_5": 37.4,
    "pm10": 41.1,
    "us_aqi": 130
  },
  {
    "name": "Dasarahalli",
    "lat": 13.048,
    "lon": 77.517,
    "temperature_c": 27.8,
    "humidity_pct": 32,
    "precipitation_mm": 0.0,
    "pm2_5": 37.4,
    "pm10": 41.1,
    "us_aqi": 130
  },
  {
    "name": "Mahalakshmi Layout",
    "lat": 13.018,
    "lon": 77.548,
    "temperature_c": 27.8,
    "humidity_pct": 32,
    "precipitation_mm": 0.0,
    "pm2_5": 37.4,
    "pm10": 41.1,
    "us_aqi": 130
  },
  {
    "name": "Mathikere",
    "lat": 13.028,
    "lon": 77.563,
    "temperature_c": 28.5,
    "humidity_pct": 32,
    "precipitation_mm": 0.0,
    "pm2_5": 37.4,
    "pm10": 41.1,
    "us_aqi": 130
  },
  {
    "name": "Bhattarahalli",
    "lat": 12.901,
    "lon": 77.498,
    "temperature_c": 29.6,
    "humidity_pct": 32,
    "precipitation_mm": 0.0,
    "pm2_5": 44.5,
    "pm10": 46.1,
    "us_aqi": 164
  },
  {
    "name": "Arekere",
    "lat": 12.8853,
    "lon": 77.6096,
    "temperature_c": 29.2,
    "humidity_pct": 32,
    "precipitation_mm": 0.0,
    "pm2_5": 44.5,
    "pm10": 46.1,
    "us_aqi": 164
  },
  {
    "name": "Vasanthapura",
    "lat": 12.9042,
    "lon": 77.5193,
    "temperature_c": 29.7,
    "humidity_pct": 32,
    "precipitation_mm": 0.0,
    "pm2_5": 44.5,
    "pm10": 46.1,
    "us_aqi": 164
  },
  {
    "name": "Konanakunte",
    "lat": 12.8936,
    "lon": 77.5546,
    "temperature_c": 29.3,
    "humidity_pct": 32,
    "precipitation_mm": 0.0,
    "pm2_5": 44.5,
    "pm10": 46.1,
    "us_aqi": 164
  },
  {
    "name": "Talaghattapura",
    "lat": 12.8677,
    "lon": 77.5274,
    "temperature_c": 29.2,
    "humidity_pct": 32,
    "precipitation_mm": 0.0,
    "pm2_5": 44.5,
    "pm10": 46.1,
    "us_aqi": 164
  },
  {
    "name": "Sarakki",
    "lat": 12.9154,
    "lon": 77.5657,
    "temperature_c": 29.2,
    "humidity_pct": 32,
    "precipitation_mm": 0.0,
    "pm2_5": 44.5,
    "pm10": 46.1,
    "us_aqi": 164
  },
  {
    "name": "Chandapura",
    "lat": 12.8278,
    "lon": 77.6531,
    "temperature_c": 29.1,
    "humidity_pct": 32,
    "precipitation_mm": 0.0,
    "pm2_5": 44.5,
    "pm10": 46.1,
    "us_aqi": 164
  },
  {
    "name": "Ulsoor",
    "lat": 12.9839,
    "lon": 77.628,
    "temperature_c": 28.7,
    "humidity_pct": 32,
    "precipitation_mm": 0.0,
    "pm2_5": 44.5,
    "pm10": 46.1,
    "us_aqi": 164
  },
  {
    "name": "Kodigehalli",
    "lat": 13.0491,
    "lon": 77.6131,
    "temperature_c": 28.8,
    "humidity_pct": 32,
    "precipitation_mm": 0.0,
    "pm2_5": 37.4,
    "pm10": 41.1,
    "us_aqi": 130
  },
  {
    "name": "Kaggadasapura",
    "lat": 12.9974,
    "lon": 77.6735,
    "temperature_c": 28.7,
    "humidity_pct": 32,
    "precipitation_mm": 0.0,
    "pm2_5": 44.5,
    "pm10": 46.1,
    "us_aqi": 164
  },
  {
    "name": "Hoodi",
    "lat": 13.0002,
    "lon": 77.7224,
    "temperature_c": 28.5,
    "humidity_pct": 32,
    "precipitation_mm": 0.0,
    "pm2_5": 37.4,
    "pm10": 41.1,
    "us_aqi": 130
  },
  {
    "name": "Kundalahalli",
    "lat": 12.9718,
    "lon": 77.7157,
    "temperature_c": 28.4,
    "humidity_pct": 32,
    "precipitation_mm": 0.0,
    "pm2_5": 44.5,
    "pm10": 46.1,
    "us_aqi": 164
  },
  {
    "name": "Dommasandra",
    "lat": 12.8616,
    "lon": 77.7433,
    "temperature_c": 28.4,
    "humidity_pct": 34,
    "precipitation_mm": 0.0,
    "pm2_5": 54.4,
    "pm10": 56.1,
    "us_aqi": 132
  }
]