[
  {
    "name": "Indiranagar",
    "lat": 12.9784,
    "lon": 77.6408,
    "temperature_c": 31.9,
    "humidity_pct": 40,
    "precipitation_mm": 0.0,
    "pm2_5": 20.9,
    "pm10": 25.5,
    "us_aqi": 72
  },
  {
    "name": "Koramangala",
    "lat": 12.9352,
    "lon": 77.6245,
    "temperature_c": 31.8,
    "humidity_pct": 45,
    "precipitation_mm": 0.0,
    "pm2_5": 20.9,
    "pm10": 25.5,
    "us_aqi": 72
  },
  {
    "name": "Whitefield",
    "lat": 12.9742,
    "lon": 77.7424,
    "temperature_c": 32.1,
    "humidity_pct": 36,
    "precipitation_mm": 0.0,
    "pm2_5": 20.9,
    "pm10": 25.5,
    "us_aqi": 72
  },
  {
    "name": "Jayanagar",
    "lat": 12.9308,
    "lon": 77.5838,
    "temperature_c": 31.6,
    "humidity_pct": 45,
    "precipitation_mm": 0.0,
    "pm2_5": 20.9,
    "pm10": 25.5,
    "us_aqi": 72
  },
  {
    "name": "HSR Layout",
    "lat": 12.9116,
    "lon": 77.6473,
    "temperature_c": 31.8,
    "humidity_pct": 45,
    "precipitation_mm": 0.0,
    "pm2_5": 20.9,
    "pm10": 25.5,
    "us_aqi": 72
  },
  {
    "name": "Malleshwaram",
    "lat": 13.0035,
    "lon": 77.571,
    "temperature_c": 31.8,
    "humidity_pct": 40,
    "precipitation_mm": 0.0,
    "pm2_5": 21.2,
    "pm10": 27.0,
    "us_aqi": 71
  },
  {
    "name": "Hebbal",
    "lat": 13.035,
    "lon": 77.597,
    "temperature_c": 31.9,
    "humidity_pct": 40,
    "precipitation_mm": 0.0,
    "pm2_5": 21.2,
    "pm10": 27.0,
    "us_aqi": 71
  },
  {
    "name": "Rajajinagar",
    "lat": 12.9922,
    "lon": 77.5555,
    "temperature_c": 32.1,
    "humidity_pct": 39,
    "precipitation_mm": 0.0,
    "pm2_5": 20.9,
    "pm10": 25.5,
    "us_aqi": 72
  },
  {
    "name": "Basavanagudi",
    "lat": 12.9416,
    "lon": 77.5752,
    "temperature_c": 31.7,
    "humidity_pct": 40,
    "precipitation_mm": 0.0,
    "pm2_5": 20.9,
    "pm10": 25.5,
    "us_aqi": 72
  },
  {
    "name": "Marathahalli",
    "lat": 12.9591,
    "lon": 77.6974,
    "temperature_c": 32.1,
    "humidity_pct": 36,
    "precipitation_mm": 0.0,
    "pm2_5": 20.9,
    "pm10": 25.5,
    "us_aqi": 72
  },
  {
    "name": "BTM Layout",
    "lat": 12.9166,
    "lon": 77.6101,
    "temperature_c": 32.3,
    "humidity_pct": 43,
    "precipitation_mm": 0.0,
    "pm2_5": 20.9,
    "pm10": 25.5,
    "us_aqi": 72
  },
  {
    "name": "Yelahanka",
    "lat": 13.1005,
    "lon": 77.5963,
    "temperature_c": 34.3,
    "humidity_pct": 27,
    "precipitation_mm": 0.0,
    "pm2_5": 21.2,
    "pm10": 27.0,
    "us_aqi": 71
  },
  {
    "name": "Electronic City",
    "lat": 12.8468,
    "lon": 77.668,
    "temperature_c": 32.1,
    "humidity_pct": 43,
    "precipitation_mm": 0.0,
    "pm2_5": 20.9,
    "pm10": 25.5,
    "us_aqi": 72
  },
  {
    "name": "Bellandur",
    "lat": 12.9257,
    "lon": 77.6762,
    "temperature_c": 32.4,
    "humidity_pct": 43,
    "precipitation_mm": 0.0,
    "pm2_5": 20.9,
    "pm10": 25.5,
    "us_aqi": 72
  },
  {
    "name": "Bannerghatta Road",
    "lat": 12.8933,
    "lon": 77.5975,
    "temperature_c": 32.3,
    "humidity_pct": 43,
    "precipitation_mm": 0.0,
    "pm2_5": 20.9,
    "pm10": 25.5,
    "us_aqi": 72
  },
  {
    "name": "Vijayanagar",
    "lat": 12.9718,
    "lon": 77.5348,
    "temperature_c": 32.8,
    "humidity_pct": 37,
    "precipitation_mm": 0.0,
    "pm2_5": 20.9,
    "pm10": 25.5,
    "us_aqi": 72
  },
  {
    "name": "RT Nagar",
    "lat": 13.02,
    "lon": 77.596,
    "temperature_c": 32.3,
    "humidity_pct": 38,
    "precipitation_mm": 0.0,
    "pm2_5": 21.2,
    "pm10": 27.0,
    "us_aqi": 71
  },
  {
    "name": "Frazer Town",
    "lat": 12.9833,
    "lon": 77.6167,
    "temperature_c": 32.4,
    "humidity_pct": 38,
    "precipitation_mm": 0.0,
    "pm2_5": 20.9,
    "pm10": 25.5,
    "us_aqi": 72
  },
  {
    "name": "Cox Town",
    "lat": 12.993,
    "lon": 77.619,
    "temperature_c": 32.4,
    "humidity_pct": 38,
    "precipitation_mm": 0.0,
    "pm2_5": 20.9,
    "pm10": 25.5,
    "us_aqi": 72
  },
  {
    "name": "Sadashivanagar",
    "lat": 13.005,
    "lon": 77.58,
    "temperature_c": 32.2,
    "humidity_pct": 38,
    "precipitation_mm": 0.0,
    "pm2_5": 21.2,
    "pm10": 27.0,
    "us_aqi": 71
  },
  {
    "name": "Dollars Colony",
    "lat": 13.042,
    "lon": 77.591,
    "temperature_c": 32.4,
    "humidity_pct": 38,
    "precipitation_mm": 0.0,
    "pm2_5": 21.2,
    "pm10": 27.0,
    "us_aqi": 71
  },
  {
    "name": "Cunningham Road",
    "lat": 12.9833,
    "lon": 77.5933,
    "temperature_c": 32.2,
    "humidity_pct": 38,
    "precipitation_mm": 0.0,
    "pm2_5": 20.9,
    "pm10": 25.5,
    "us_aqi": 72
  },
  {
    "name": "KR Puram",
    "lat": 13.0067,
    "lon": 77.6928,
    "temperature_c": 32.6,
    "humidity_pct": 34,
    "precipitation_mm": 0.0,
    "pm2_5": 21.2,
    "pm10": 27.0,
    "us_aqi": 71
  },
  {
    "name": "Mahadevapura",
    "lat": 12.994,
    "lon": 77.7127,
    "temperature_c": 32.5,
    "humidity_pct": 34,
    "precipitation_mm": 0.0,
    "pm2_5": 20.9,
    "pm10": 25.5,
    "us_aqi": 72
  },
  {
    "name": "Hennur",
    "lat": 13.042,
    "lon": 77.638,
    "temperature_c": 32.5,
    "humidity_pct": 38,
    "precipitation_mm": 0.0,
    "pm2_5": 21.2,
    "pm10": 27.0,
    "us_aqi": 71
  },
  {
    "name": "Nagavara",
    "lat": 13.0494,
    "lon": 77.6236,
    "temperature_c": 32.5,
    "humidity_pct": 38,
    "precipitation_mm": 0.0,
    "pm2_5": 21.2,
    "pm10": 27.0,
    "us_aqi": 71
  },
  {
    "name": "Banaswadi",
    "lat": 13.0013,
    "lon": 77.6456,
    "temperature_c": 32.3,
    "humidity_pct": 38,
    "precipitation_mm": 0.0,
    "pm2_5": 21.2,
    "pm10": 27.0,
    "us_aqi": 71
  },
  {
    "name": "Ramamurthy Nagar",
    "lat": 13.0142,
    "lon": 77.6608,
    "temperature_c": 32.3,
    "humidity_pct": 38,
    "precipitation_mm": 0.0,
    "pm2_5": 21.2,
    "pm10": 27.0,
    "us_aqi": 71
  },
  {
    "name": "Brookefield",
    "lat": 12.9783,
    "lon": 77.7277,
    "temperature_c": 32.5,
    "humidity_pct": 34,
    "precipitation_mm": 0.0,
    "pm2_5": 20.9,
    "pm10": 25.5,
    "us_aqi": 72
  },
  {
    "name": "Shivajinagar",
    "lat": 12.9894,
    "lon": 77.6012,
    "temperature_c": 32.3,
    "humidity_pct": 38,
    "precipitation_mm": 0.0,
    "pm2_5": 20.9,
    "pm10": 25.5,
    "us_aqi": 72
  },
  {
    "name": "Yeshwantpur",
    "lat": 13.0247,
    "lon": 77.5479,
    "temperature_c": 32.6,
    "humidity_pct": 37,
    "precipitation_mm": 0.0,
    "pm2_5": 21.2,
    "pm10": 27.0,
    "us_aqi": 71
  },
  {
    "name": "Nagarbhavi",
    "lat": 12.9625,
    "lon": 77.514,
    "temperature_c": 33.1,
    "humidity_pct": 37,
    "precipitation_mm": 0.0,
    "pm2_5": 20.9,
    "pm10": 25.5,
    "us_aqi": 72
  },
  {
    "name": "Kengeri",
    "lat": 12.9143,
    "lon": 77.4829,
    "temperature_c": 32.6,
    "humidity_pct": 44,
    "precipitation_mm": 0.0,
    "pm2_5": 20.9,
    "pm10": 25.5,
    "us_aqi": 72
  },
  {
    "name": "Uttarahalli",
    "lat": 12.8914,
    "lon": 77.5519,
    "temperature_c": 32.0,
    "humidity_pct": 44,
    "precipitation_mm": 0.0,
    "pm2_5": 20.9,
    "pm10": 25.5,
    "us_aqi": 72
  },
  {
    "name": "Bommanahalli",
    "lat": 12.8932,
    "lon": 77.6198,
    "temperature_c": 32.3,
    "humidity_pct": 43,
    "precipitation_mm": 0.0,
    "pm2_5": 19.2,
    "pm10": 25.0,
    "us_aqi": 72
  },
  {
    "name": "Begur",
    "lat": 12.8668,
    "lon": 77.6241,
    "temperature_c": 32.6,
    "humidity_pct": 42,
    "precipitation_mm": 0.0,
    "pm2_5": 19.2,
    "pm10": 25.0,
    "us_aqi": 72
  },
  {
    "name": "Jakkur",
    "lat": 13.0742,
    "lon": 77.601,
    "temperature_c": 34.7,
    "humidity_pct": 26,
    "precipitation_mm": 0.0,
    "pm2_5": 19.0,
    "pm10": 26.1,
    "us_aqi": 71
  },
  {
    "name": "Padmanabhanagar",
    "lat": 12.9243,
    "lon": 77.5494,
    "temperature_c": 32.4,
    "humidity_pct": 42,
    "precipitation_mm": 0.0,
    "pm2_5": 19.2,
    "pm10": 25.0,
    "us_aqi": 72
  },
  {
    "name": "Old Madras Road",
    "lat": 13.005,
    "lon": 77.665,
    "temperature_c": 32.7,
    "humidity_pct": 37,
    "precipitation_mm": 0.0,
    "pm2_5": 19.0,
    "pm10": 26.1,
    "us_aqi": 71
  },
  {
    "name": "Doddakannalli",
    "lat": 12.9058,
    "lon": 77.6934,
    "temperature_c": 32.7,
    "humidity_pct": 37,
    "precipitation_mm": 0.0,
    "pm2_5": 19.2,
    "pm10": 25.0,
    "us_aqi": 72
  },
  {
    "name": "Kasavanahalli",
    "lat": 12.9042,
    "lon": 77.6765,
    "temperature_c": 32.7,
    "humidity_pct": 42,
    "precipitation_mm": 0.0,
    "pm2_5": 19.2,
    "pm10": 25.0,
    "us_aqi": 72
  },
  {
    "name": "Haralur",
    "lat": 12.9173,
    "lon": 77.683,
    "temperature_c": 32.8,
    "humidity_pct": 42,
    "precipitation_mm": 0.0,
    "pm2_5": 19.2,
    "pm10": 25.0,
    "us_aqi": 72
  },
  {
    "name": "RR Nagar",
    "lat": 12.9235,
    "lon": 77.5149,
    "temperature_c": 32.9,
    "humidity_pct": 42,
    "precipitation_mm": 0.0,
    "pm2_5": 19.2,
    "pm10": 25.0,
    "us_aqi": 72
  },
  {
    "name": "Jalahalli",
    "lat": 13.0527,
    "lon": 77.543,
    "temperature_c": 32.8,
    "humidity_pct": 35,
    "precipitation_mm": 0.0,
    "pm2_5": 19.0,
    "pm10": 26.1,
    "us_aqi": 71
  },
  {
    "name": "Dasarahalli",
    "lat": 13.048,
    "lon": 77.517,
    "temperature_c": 33.0,
    "humidity_pct": 35,
    "precipitation_mm": 0.0,
    "pm2_5": 19.0,
    "pm10": 26.1,
    "us_aqi": 71
  },
  {
    "name": "Mahalakshmi Layout",
    "lat": 13.018,
    "lon": 77.548,
    "temperature_c": 33.0,
    "humidity_pct": 35,
    "precipitation_mm": 0.0,
    "pm2_5": 19.0,
    "pm10": 26.1,
    "us_aqi": 71
  },
  {
    "name": "Nandini Layout",
    "lat": 13.008,
    "lon": 77.532,
    "temperature_c": 33.2,
    "humidity_pct": 35,
    "precipitation_mm": 0.0,
    "pm2_5": 19.0,
    "pm10": 26.1,
    "us_aqi": 71
  },
  {
    "name": "Kamakshipalya",
    "lat": 12.982,
    "lon": 77.538,
    "temperature_c": 33.1,
    "humidity_pct": 35,
    "precipitation_mm": 0.0,
    "pm2_5": 19.2,
    "pm10": 25.0,
    "us_aqi": 72
  },
  {
    "name": "Chandra Layout",
    "lat": 12.976,
    "lon": 77.527,
    "temperature_c": 33.2,
    "humidity_pct": 35,
    "precipitation_mm": 0.0,
    "pm2_5": 19.2,
    "pm10": 25.0,
    "us_aqi": 72
  },
  {
    "name": "Herohalli",
    "lat": 13.015,
    "lon": 77.51,
    "temperature_c": 32.9,
    "humidity_pct": 35,
    "precipitation_mm": 0.0,
    "pm2_5": 19.0,
    "pm10": 26.1,
    "us_aqi": 71
  },
  {
    "name": "Mathikere",
    "lat": 13.028,
    "lon": 77.563,
    "temperature_c": 32.6,
    "humidity_pct": 37,
    "precipitation_mm": 0.0,
    "pm2_5": 19.0,
    "pm10": 26.1,
    "us_aqi": 71
  },
  {
    "name": "Bhattarahalli",
    "lat": 12.901,
    "lon": 77.498,
    "temperature_c": 32.7,
    "humidity_pct": 42,
    "precipitation_mm": 0.0,
    "pm2_5": 19.2,
    "pm10": 25.0,
    "us_aqi": 72
  },
  {
    "name": "Basaveshwara Nagar",
    "lat": 13.006,
    "lon": 77.535,
    "temperature_c": 33.2,
    "humidity_pct": 35,
    "precipitation_mm": 0.0,
    "pm2_5": 19.0,
    "pm10": 26.1,
    "us_aqi": 71
  },
  {
    "name": "BEL Layout",
    "lat": 13.028,
    "lon": 77.539,
    "temperature_c": 32.9,
    "humidity_pct": 35,
    "precipitation_mm": 0.0,
    "pm2_5": 19.0,
    "pm10": 26.1,
    "us_aqi": 71
  },
  {
    "name": "Girinagar",
    "lat": 12.938,
    "lon": 77.549,
    "temperature_c": 33.2,
    "humidity_pct": 35,
    "precipitation_mm": 0.0,
    "pm2_5": 19.2,
    "pm10": 25.0,
    "us_aqi": 72
  },
  {
    "name": "Hegganahalli",
    "lat": 12.986,
    "lon": 77.518,
    "temperature_c": 33.3,
    "humidity_pct": 35,
    "precipitation_mm": 0.0,
    "pm2_5": 19.2,
    "pm10": 25.0,
    "us_aqi": 72
  },
  {
    "name": "Chord Road",
    "lat": 12.995,
    "lon": 77.546,
    "temperature_c": 32.9,
    "humidity_pct": 35,
    "precipitation_mm": 0.0,
    "pm2_5": 19.2,
    "pm10": 25.0,
    "us_aqi": 72
  },
  {
    "name": "Arekere",
    "lat": 12.8853,
    "lon": 77.6096,
    "temperature_c": 32.7,
    "humidity_pct": 42,
    "precipitation_mm": 0.0,
    "pm2_5": 19.2,
    "pm10": 25.0,
    "us_aqi": 72
  },
  {
    "name": "Hulimavu",
    "lat": 12.8741,
    "lon": 77.6052,
    "temperature_c": 32.7,
    "humidity_pct": 42,
    "precipitation_mm": 0.0,
    "pm2_5": 19.2,
    "pm10": 25.0,
    "us_aqi": 72
  },
  {
    "name": "Gottigere",
    "lat": 12.854,
    "lon": 77.587,
    "temperature_c": 32.5,
    "humidity_pct": 42,
    "precipitation_mm": 0.0,
    "pm2_5": 19.2,
    "pm10": 25.0,
    "us_aqi": 72
  },
  {
    "name": "Akshayanagar",
    "lat": 12.8685,
    "lon": 77.624,
    "temperature_c": 33.1,
    "humidity_pct": 39,
    "precipitation_mm": 0.0,
    "pm2_5": 19.2,
    "pm10": 25.0,
    "us_aqi": 72
  },
  {
    "name": "Hongasandra",
    "lat": 12.8972,
    "lon": 77.6132,
    "temperature_c": 33.3,
    "humidity_pct": 39,
    "precipitation_mm": 0.0,
    "pm2_5": 19.2,
    "pm10": 25.0,
    "us_aqi": 72
  },
  {
    "name": "Subramanyapura",
    "lat": 12.9068,
    "lon": 77.5361,
    "temperature_c": 33.0,
    "humidity_pct": 41,
    "precipitation_mm": 0.0,
    "pm2_5": 19.2,
    "pm10": 25.0,
    "us_aqi": 72
  },
  {
    "name": "Vasanthapura",
    "lat": 12.9042,
    "lon": 77.5193,
    "temperature_c": 33.2,
    "humidity_pct": 41,
    "precipitation_mm": 0.0,
    "pm2_5": 19.2,
    "pm10": 25.0,
    "us_aqi": 72
  },
  {
    "name": "Talaghattapura",
    "lat": 12.8677,
    "lon": 77.5274,
    "temperature_c": 32.8,
    "humidity_pct": 41,
    "precipitation_mm": 0.0,
    "pm2_5": 19.2,
    "pm10": 25.0,
    "us_aqi": 72
  },
  {
    "name": "Sarakki",
    "lat": 12.9154,
    "lon": 77.5657,
    "temperature_c": 33.2,
    "humidity_pct": 39,
    "precipitation_mm": 0.0,
    "pm2_5": 19.2,
    "pm10": 25.0,
    "us_aqi": 72
  },
  {
    "name": "Puttenahalli",
    "lat": 12.899,
    "lon": 77.5707,
    "temperature_c": 33.2,
    "humidity_pct": 39,
    "precipitation_mm": 0.0,
    "pm2_5": 19.2,
    "pm10": 25.0,
    "us_aqi": 72
  },
  {
    "name": "Raghuvanahalli",
    "lat": 12.879,
    "lon": 77.5485,
    "temperature_c": 32.9,
    "humidity_pct": 41,
    "precipitation_mm": 0.0,
    "pm2_5": 19.2,
    "pm10": 25.0,
    "us_aqi": 72
  },
  {
    "name": "Singasandra",
    "lat": 12.8938,
    "lon": 77.6299,
    "temperature_c": 33.3,
    "humidity_pct": 39,
    "precipitation_mm": 0.0,
    "pm2_5": 19.2,
    "pm10": 25.0,
    "us_aqi": 72
  },
  {
    "name": "Chandapura",
    "lat": 12.8278,
    "lon": 77.6531,
    "temperature_c": 33.1,
    "humidity_pct": 39,
    "precipitation_mm": 0.0,
    "pm2_5": 19.2,
    "pm10": 25.0,
    "us_aqi": 72
  },
  {
    "name": "MG Road",
    "lat": 12.9753,
    "lon": 77.6076,
    "temperature_c": 33.1,
    "humidity_pct": 35,
    "precipitation_mm": 0.0,
    "pm2_5": 19.2,
    "pm10": 25.0,
    "us_aqi": 72
  },
  {
    "name": "Richmond Town",
    "lat": 12.96,
    "lon": 77.599,
    "temperature_c": 33.2,
    "humidity_pct": 35,
    "precipitation_mm": 0.0,
    "pm2_5": 19.2,
    "pm10": 25.0,
    "us_aqi": 72
  },
  {
    "name": "Langford Town",
    "lat": 12.9545,
    "lon": 77.5968,
    "temperature_c": 33.3,
    "humidity_pct": 35,
    "precipitation_mm": 0.0,
    "pm2_5": 19.2,
    "pm10": 25.0,
    "us_aqi": 72
  },
  {
    "name": "Ulsoor",
    "lat": 12.9839,
    "lon": 77.628,
    "temperature_c": 33.2,
    "humidity_pct": 35,
    "precipitation_mm": 0.0,
    "pm2_5": 19.2,
    "pm10": 25.0,
    "us_aqi": 72
  },
  {
    "name": "Vasanth Nagar",
    "lat": 12.9972,
    "lon": 77.5932,
    "temperature_c": 33.1,
    "humidity_pct": 35,
    "precipitation_mm": 0.0,
    "pm2_5": 19.2,
    "pm10": 25.0,
    "us_aqi": 72
  },
  {
    "name": "Victoria Layout",
    "lat": 12.9677,
    "lon": 77.6176,
    "temperature_c": 33.2,
    "humidity_pct": 35,
    "precipitation_mm": 0.0,
    "pm2_5": 19.2,
    "pm10": 25.0,
    "us_aqi": 72
  },
  {
    "name": "CV Raman Nagar",
    "lat": 12.9913,
    "lon": 77.6595,
    "temperature_c": 33.2,
    "humidity_pct": 35,
    "precipitation_mm": 0.0,
    "pm2_5": 19.2,
    "pm10": 25.0,
    "us_aqi": 72
  },
  {
    "name": "Horamavu",
    "lat": 13.0055,
    "lon": 77.6648,
    "temperature_c": 33.2,
    "humidity_pct": 35,
    "precipitation_mm": 0.0,
    "pm2_5": 19.0,
    "pm10": 26.1,
    "us_aqi": 71
  },
  {
    "name": "HAL",
    "lat": 12.9553,
    "lon": 77.6698,
    "temperature_c": 33.3,
    "humidity_pct": 35,
    "precipitation_mm": 0.0,
    "pm2_5": 19.2,
    "pm10": 25.0,
    "us_aqi": 72
  },
  {
    "name": "Kaggadasapura",
    "lat": 12.9974,
    "lon": 77.6735,
    "temperature_c": 33.2,
    "humidity_pct": 35,
    "precipitation_mm": 0.0,
    "pm2_5": 19.2,
    "pm10": 25.0,
    "us_aqi": 72
  },
  {
    "name": "Hoodi",
    "lat": 13.0002,
    "lon": 77.7224,
    "temperature_c": 34.0,
    "humidity_pct": 27,
    "precipitation_mm": 0.0,
    "pm2_5": 19.0,
    "pm10": 26.1,
    "us_aqi": 71
  },
  {
    "name": "Kundalahalli",
    "lat": 12.9718,
    "lon": 77.7157,
    "temperature_c": 33.9,
    "humidity_pct": 27,
    "precipitation_mm": 0.0,
    "pm2_5": 19.2,
    "pm10": 25.0,
    "us_aqi": 72
  },
  {
    "name": "Kadugodi",
    "lat": 13.0016,
    "lon": 77.758,
    "temperature_c": 34.1,
    "humidity_pct": 27,
    "precipitation_mm": 0.0,
    "pm2_5": 19.0,
    "pm10": 26.1,
    "us_aqi": 71
  },
  {
    "name": "Panathur",
    "lat": 12.9319,
    "lon": 77.6865,
    "temperature_c": 34.0,
    "humidity_pct": 37,
    "precipitation_mm": 0.0,
    "pm2_5": 19.2,
    "pm10": 25.0,
    "us_aqi": 72
  },
  {
    "name": "Munnekolala",
    "lat": 12.9484,
    "lon": 77.71,
    "temperature_c": 34.0,
    "humidity_pct": 27,
    "precipitation_mm": 0.0,
    "pm2_5": 19.2,
    "pm10": 25.0,
    "us_aqi": 72
  },
  {
    "name": "Vibhutipura",
    "lat": 12.9655,
    "lon": 77.664,
    "temperature_c": 33.7,
    "humidity_pct": 33,
    "precipitation_mm": 0.0,
    "pm2_5": 19.2,
    "pm10": 25.0,
    "us_aqi": 72
  },
  {
    "name": "Carmelaram",
    "lat": 12.8904,
    "lon": 77.7098,
    "temperature_c": 33.8,
    "humidity_pct": 30,
    "precipitation_mm": 0.0,
    "pm2_5": 19.2,
    "pm10": 25.0,
    "us_aqi": 72
  },
  {
    "name": "Dommasandra",
    "lat": 12.8616,
    "lon": 77.7433,
    "temperature_c": 33.9,
    "humidity_pct": 30,
    "precipitation_mm": 0.0,
    "pm2_5": 19.2,
    "pm10": 25.0,
    "us_aqi": 72
  },
  {
    "name": "Devarabeesanahalli",
    "lat": 12.9705,
    "lon": 77.707,
    "temperature_c": 33.9,
    "humidity_pct": 27,
    "precipitation_mm": 0.0,
    "pm2_5": 19.2,
    "pm10": 25.0,
    "us_aqi": 72
  },
  {
    "name": "Garudacharpalya",
    "lat": 12.9848,
    "lon": 77.6836,
    "temperature_c": 33.8,
    "humidity_pct": 33,
    "precipitation_mm": 0.0,
    "pm2_5": 19.2,
    "pm10": 25.0,
    "us_aqi": 72
  },
  {
    "name": "Hagadur",
    "lat": 12.9757,
    "lon": 77.76,
    "temperature_c": 34.0,
    "humidity_pct": 27,
    "precipitation_mm": 0.0,
    "pm2_5": 19.2,
    "pm10": 25.0,
    "us_aqi": 72
  }
]