[
  {
    "name": "Indiranagar",
    "lat": 12.9784,
    "lon": 77.6408,
    "temperature_c": 30.4,
    "humidity_pct": 47,
    "precipitation_mm": 0.0,
    "pm2_5": 13.4,
    "pm10": 22.2,
    "us_aqi": 71
  },
  {
    "name": "Koramangala",
    "lat": 12.9352,
    "lon": 77.6245,
    "temperature_c": 30.7,
    "humidity_pct": 49,
    "precipitation_mm": 0.0,
    "pm2_5": 13.4,
    "pm10": 22.2,
    "us_aqi": 71
  },
  {
    "name": "Whitefield",
    "lat": 12.9742,
    "lon": 77.7424,
    "temperature_c": 30.3,
    "humidity_pct": 47,
    "precipitation_mm": 0.0,
    "pm2_5": 13.4,
    "pm10": 22.2,
    "us_aqi": 71
  },
  {
    "name": "BTM Layout",
    "lat": 12.9166,
    "lon": 77.6101,
    "temperature_c": 30.6,
    "humidity_pct": 49,
    "precipitation_mm": 0.0,
    "pm2_5": 13.4,
    "pm10": 22.2,
    "us_aqi": 71
  },
  {
    "name": "Yelahanka",
    "lat": 13.1005,
    "lon": 77.5963,
    "temperature_c": 31.4,
    "humidity_pct": 42,
    "precipitation_mm": 0.0,
    "pm2_5": 15.7,
    "pm10": 27.2,
    "us_aqi": 66
  },
  {
    "name": "Electronic City",
    "lat": 12.8468,
    "lon": 77.668,
    "temperature_c": 30.4,
    "humidity_pct": 49,
    "precipitation_mm": 0.0,
    "pm2_5": 13.4,
    "pm10": 22.2,
    "us_aqi": 71
  },
  {
    "name": "Cunningham Road",
    "lat": 12.9833,
    "lon": 77.5933,
    "temperature_c": 30.2,
    "humidity_pct": 47,
    "precipitation_mm": 0.0,
    "pm2_5": 13.4,
    "pm10": 22.2,
    "us_aqi": 71
  },
  {
    "name": "KR Puram",
    "lat": 13.0067,
    "lon": 77.6928,
    "temperature_c": 30.2,
    "humidity_pct": 47,
    "precipitation_mm": 0.0,
    "pm2_5": 15.7,
    "pm10": 27.2,
    "us_aqi": 66
  },
  {
    "name": "Mahadevapura",
    "lat": 12.994,
    "lon": 77.7127,
    "temperature_c": 30.2,
    "humidity_pct": 47,
    "precipitation_mm": 0.0,
    "pm2_5": 13.4,
    "pm10": 22.2,
    "us_aqi": 71
  },
  {
    "name": "Yeshwantpur",
    "lat": 13.0247,
    "lon": 77.5479,
    "temperature_c": 31.3,
    "humidity_pct": 44,
    "precipitation_mm": 0.0,
    "pm2_5": 15.7,
    "pm10": 27.2,
    "us_aqi": 66
  },
  {
    "name": "Peenya",
    "lat": 13.029,
    "lon": 77.515,
    "temperature_c": 31.2,
    "humidity_pct": 44,
    "precipitation_mm": 0.0,
    "pm2_5": 15.7,
    "pm10": 27.2,
    "us_aqi": 66
  },
  {
    "name": "Nagarbhavi",
    "lat": 12.9625,
    "lon": 77.514,
    "temperature_c": 31.7,
    "humidity_pct": 44,
    "precipitation_mm": 0.0,
    "pm2_5": 13.4,
    "pm10": 22.2,
    "us_aqi": 71
  },
  {
    "name": "RR Nagar",
    "lat": 12.9235,
    "lon": 77.5149,
    "temperature_c": 31.5,
    "humidity_pct": 46,
    "precipitation_mm": 0.0,
    "pm2_5": 13.4,
    "pm10": 22.2,
    "us_aqi": 71
  },
  {
    "name": "Jalahalli",
    "lat": 13.0527,
    "lon": 77.543,
    "temperature_c": 31.1,
    "humidity_pct": 44,
    "precipitation_mm": 0.0,
    "pm2_5": 15.7,
    "pm10": 27.2,
    "us_aqi": 66
  },
  {
    "name": "Dasarahalli",
    "lat": 13.048,
    "lon": 77.517,
    "temperature_c": 31.3,
    "humidity_pct": 44,
    "precipitation_mm": 0.0,
    "pm2_5": 15.7,
    "pm10": 27.2,
    "us_aqi": 66
  },
  {
    "name": "Herohalli",
    "lat": 13.015,
    "lon": 77.51,
    "temperature_c": 31.2,
    "humidity_pct": 44,
    "precipitation_mm": 0.0,
    "pm2_5": 15.7,
    "pm10": 27.2,
    "us_aqi": 66
  },
  {
    "name": "Mathikere",
    "lat": 13.028,
    "lon": 77.563,
    "temperature_c": 30.7,
    "humidity_pct": 45,
    "precipitation_mm": 0.0,
    "pm2_5": 15.7,
    "pm10": 27.2,
    "us_aqi": 66
  },
  {
    "name": "BEL Layout",
    "lat": 13.028,
    "lon": 77.539,
    "temperature_c": 31.2,
    "humidity_pct": 44,
    "precipitation_mm": 0.0,
    "pm2_5": 15.7,
    "pm10": 27.2,
    "us_aqi": 66
  },
  {
    "name": "Hongasandra",
    "lat": 12.8972,
    "lon": 77.6132,
    "temperature_c": 31.2,
    "humidity_pct": 46,
    "precipitation_mm": 0.0,
    "pm2_5": 13.4,
    "pm10": 22.2,
    "us_aqi": 71
  },
  {
    "name": "Subramanyapura",
    "lat": 12.9068,
    "lon": 77.5361,
    "temperature_c": 31.2,
    "humidity_pct": 46,
    "precipitation_mm": 0.0,
    "pm2_5": 13.4,
    "pm10": 22.2,
    "us_aqi": 71
  },
  {
    "name": "Vasanthapura",
    "lat": 12.9042,
    "lon": 77.5193,
    "temperature_c": 31.4,
    "humidity_pct": 46,
    "precipitation_mm": 0.0,
    "pm2_5": 13.4,
    "pm10": 22.2,
    "us_aqi": 71
  },
  {
    "name": "Chandapura",
    "lat": 12.8278,
    "lon": 77.6531,
    "temperature_c": 31.0,
    "humidity_pct": 46,
    "precipitation_mm": 0.0,
    "pm2_5": 13.4,
    "pm10": 22.2,
    "us_aqi": 71
  },
  {
    "name": "MG Road",
    "lat": 12.9753,
    "lon": 77.6076,
    "temperature_c": 30.7,
    "humidity_pct": 45,
    "precipitation_mm": 0.0,
    "pm2_5": 13.4,
    "pm10": 22.2,
    "us_aqi": 71
  },
  {
    "name": "Richmond Town",
    "lat": 12.96,
    "lon": 77.599,
    "temperature_c": 30.9,
    "humidity_pct": 45,
    "precipitation_mm": 0.0,
    "pm2_5": 13.4,
    "pm10": 22.2,
    "us_aqi": 71
  },
  {
    "name": "Horamavu",
    "lat": 13.0055,
    "lon": 77.6648,
    "temperature_c": 30.8,
    "humidity_pct": 45,
    "precipitation_mm": 0.0,
    "pm2_5": 15.7,
    "pm10": 27.2,
    "us_aqi": 66
  },
  {
    "name": "Kundalahalli",
    "lat": 12.9718,
    "lon": 77.7157,
    "temperature_c": 30.6,
    "humidity_pct": 44,
    "precipitation_mm": 0.0,
    "pm2_5": 13.4,
    "pm10": 22.2,
    "us_aqi": 71
  },
  {
    "name": "Nallurhalli",
    "lat": 12.954,
    "lon": 77.731,
    "temperature_c": 30.8,
    "humidity_pct": 44,
    "precipitation_mm": 0.0,
    "pm2_5": 13.4,
    "pm10": 22.2,
    "us_aqi": 71
  },
  {
    "name": "Vibhutipura",
    "lat": 12.9655,
    "lon": 77.664,
    "temperature_c": 30.8,
    "humidity_pct": 45,
    "precipitation_mm": 0.0,
    "pm2_5": 13.4,
    "pm10": 22.2,
    "us_aqi": 71
  },
  {
    "name": "Carmelaram",
    "lat": 12.8904,
    "lon": 77.7098,
    "temperature_c": 29.8,
    "humidity_pct": 49,
    "precipitation_mm": 0.0,
    "pm2_5": 13.4,
    "pm10": 22.2,
    "us_aqi": 71
  },
  {
    "name": "Garudacharpalya",
    "lat": 12.9848,
    "lon": 77.6836,
    "temperature_c": 30.9,
    "humidity_pct": 45,
    "precipitation_mm": 0.0,
    "pm2_5": 13.4,
    "pm10": 22.2,
    "us_aqi": 71
  }
]